{"type": "FeatureCollection", "features": [{"type": "Feature", "geometry": {"type": "Point", "coordinates": [-76.0646796, 38.5409617]}, "properties": {"addr:city": "Cambridge", "addr:housenumber": "5262", "addr:postcode": "21613", "addr:street": "Woods Road", "amenity": "hospital", "emergency": "no", "gnis:feature_id": "596512", "healthcare": "hospital", "name": "Eastern Shore Hospital Center", "phone": "+1 410 221 2300", "website": "http://dhmh.maryland.gov/ESHC/", "wikidata": "Q5330450", "wikipedia": "en:Eastern Shore Hospital Center", "source_id": 358244539, "osm_type": "node", "facility_type": "hospitals"}}, {"type": "Feature", "geometry": {"type": "Point", "coordinates": [-75.4006244, 38.1680903]}, "properties": {"amenity": "hospital", "ele": "3", "emergency": "no", "gnis:feature_id": "1668905", "healthcare": "hospital", "name": "Harrison House Nursing Home", "source_id": 358246374, "osm_type": "node", "facility_type": "hospitals"}}, {"type": "Feature", "geometry": {"type": "Point", "coordinates": [-77.0594219, 38.903445]}, "properties": {"amenity": "hospital", "ele": "6", "gnis:feature_id": "528829", "healthcare": "hospital", "name": "Mule Hospital", "source_id": 358955146, "osm_type": "node", "facility_type": "hospitals"}}, {"type": "Feature", "geometry": {"type": "Point", "coordinates": [-76.6634018, 39.4587549]}, "properties": {"addr:city": "Lutherville", "addr:housenumber": "12221", "addr:postcode": "21093", "addr:state": "MD", "addr:street": "Tullamore Road", "amenity": "hospital", "name": "Mays Chapel Medical Care Center", "operator": "Lifebridge Health", "website": "https://www.lifebridgehealth.org/Main/MaysChapelMedicalCareCenters.aspx", "source_id": 3019370509, "osm_type": "node", "facility_type": "hospitals"}}, {"type": "Feature", "geometry": {"type": "Point", "coordinates": [-78.7703042, 39.6515743]}, "properties": {"addr:city": "Cumberland", "addr:housenumber": "301", "addr:postcode": "21502", "addr:state": "MD", "addr:street": "Washington Street", "amenity": "hospital", "emergency": "no", "healthcare": "hospital", "healthcare:speciality": "allergy;asthma", "name": "Allegany Allergy & Asthma", "phone": "+1 (301) 777-3300", "source_id": 5159850811, "osm_type": "node", "facility_type": "hospitals"}}, {"type": "Feature", "geometry": {"type": "Point", "coordinates": [-77.2635037, 39.179645]}, "properties": {"addr:housenumber": "19731", "addr:street": "Germantown Road", "amenity": "hospital", "healthcare": "hospital", "name": "Germantown Emergency Center", "source_id": 5443163302, "osm_type": "node", "facility_type": "hospitals"}}, {"type": "Feature", "geometry": {"type": "Point", "coordinates": [-76.3464983, 39.5194209]}, "properties": {"amenity": "hospital", "emergency": "yes", "healthcare": "hospital", "name": "Upper Chesapeake Hospital", "source_id": 5973533451, "osm_type": "node", "facility_type": "hospitals"}}, {"type": "Feature", "geometry": {"type": "Point", "coordinates": [-77.0147802, 38.9299501]}, "properties": {"amenity": "hospital", "check_date": "2025-01-10", "healthcare": "hospital", "name": "Washington Hospital", "source_id": 6377041085, "osm_type": "node", "facility_type": "hospitals"}}, {"type": "Feature", "geometry": {"type": "Point", "coordinates": [-76.6978453, 39.2843381]}, "properties": {"addr:city": "Baltimore", "addr:housenumber": "2", "addr:postcode": "21229", "addr:state": "MD", "addr:street": "North Wickham", "amenity": "hospital", "healthcare": "hospital", "name": "Former Gundry/Glass Hospital (Grand Gundry Sanitarium)", "source_id": 6684786152, "osm_type": "node", "facility_type": "hospitals"}}, {"type": "Feature", "geometry": {"type": "Point", "coordinates": [-77.717549, 39.665617]}, "properties": {"addr:city": "Hagerstown", "addr:housenumber": "1500", "addr:postcode": "21742", "addr:state": "MD", "addr:street": "Pennsylvania Avenue", "amenity": "hospital", "healthcare": "hospital", "name": "Western Maryland Hospital Center", "source_id": 7212509205, "osm_type": "node", "facility_type": "hospitals"}}, {"type": "Feature", "geometry": {"type": "Point", "coordinates": [-76.591372, 39.2955452]}, "properties": {"addr:city": "Baltimore", "addr:postcode": "21287", "addr:state": "MD", "addr:street": "Orleans Street", "addr:unit": "6I", "amenity": "hospital", "building:levels": "12", "healthcare": "centre", "healthcare:speciality": "paediatrics", "name": "Bloomberg Children\u2019s Center", "source_id": 8813258110, "osm_type": "node", "facility_type": "hospitals"}}, {"type": "Feature", "geometry": {"type": "Point", "coordinates": [-76.4787141, 39.351819]}, "properties": {"addr:city": "Rosedale", "addr:housenumber": "9000", "addr:postcode": "21237", "addr:state": "MD", "addr:street": "Franklin Square Drive", "amenity": "hospital", "healthcare": "hospital", "name": "MedStar Franklin Square Medical Center", "source_id": 9856193250, "osm_type": "node", "facility_type": "hospitals"}}, {"type": "Feature", "geometry": {"type": "Point", "coordinates": [-76.7672748, 39.192561]}, "properties": {"addr:city": "Elkridge", "addr:full": "7220 DISCOVERY DRIVE", "addr:housenumber": "7220", "addr:postcode": "21075", "addr:state": "MD", "addr:street": "Discovery Drive", "amenity": "hospital", "beds": "92", "healthcare:speciality": "psychiatry", "name": "Sheppard Pratt - Baltimore - Washington Campus", "phone": "+1 410 465 3322", "website": "https://www.sheppardpratt.org", "source_id": 10832075078, "osm_type": "node", "facility_type": "hospitals"}}, {"type": "Feature", "geometry": {"type": "Point", "coordinates": [-75.548624, 38.3692413]}, "properties": {"addr:city": "Salisbury", "addr:housenumber": "220", "addr:postcode": "21804", "addr:street": "Tilghman Road", "amenity": "hospital", "beds": "64", "healthcare": "rehabilitation", "name": "Encompass Health Rehab Hospital Of Salisbury", "phone": "+1 410 546 4600", "website": "https://encompasshealth.com/locations/salisburyrehab", "source_id": 10832075153, "osm_type": "node", "facility_type": "hospitals"}}, {"type": "Feature", "geometry": {"type": "Point", "coordinates": [-76.0579912, 38.5494536]}, "properties": {"addr:city": "Cambridge", "addr:housenumber": "821", "addr:postcode": "21613", "addr:street": "Fieldcrest Drive", "amenity": "hospital", "beds": "15", "healthcare:speciality": "psychiatry", "name": "A H C Behavioral Health And Wellness Services - Es", "phone": "+1 410 221 0288", "source_id": 10832109898, "osm_type": "node", "facility_type": "hospitals"}}, {"type": "Feature", "geometry": {"type": "Point", "coordinates": [-76.55768, 38.9783273]}, "properties": {"amenity": "hospital", "beds": "16", "healthcare:speciality": "psychiatry", "name": "Luminis Health J Kent Mcnew Family Medical Center", "phone": "+1 443 481 1000", "website": "https://aahs.org/locations/j--kent-mcnew-family-medical-center", "source_id": 10832110093, "osm_type": "node", "facility_type": "hospitals"}}, {"type": "Feature", "geometry": {"type": "Point", "coordinates": [-78.7360625, 39.6558735]}, "properties": {"addr:city": "Cumberland", "addr:housenumber": "10102", "addr:postcode": "21502", "addr:street": "Country Club Road", "amenity": "hospital", "beds": "119", "healthcare:speciality": "psychiatry", "name": "Thomas B Finan Center", "phone": "+1 301 777 2240", "source_id": 10832115778, "osm_type": "node", "facility_type": "hospitals"}}, {"type": "Feature", "geometry": {"type": "Point", "coordinates": [-75.6775223, 39.4534342]}, "properties": {"addr:city": "Middletown", "addr:housenumber": "250", "addr:postcode": "19709", "addr:state": "DE", "addr:street": "East Hampden Road", "amenity": "hospital", "beds": "40", "healthcare": "rehabilitation", "name": "Encompass Health Rehabilitation Hospital Of Middletown", "phone": "+1 484 889 9815", "website": "https://encompasshealth.com/locations/middletownrehab", "source_id": 10836136519, "osm_type": "node", "facility_type": "hospitals"}}, {"type": "Feature", "geometry": {"type": "Point", "coordinates": [-75.408034, 38.699082]}, "properties": {"addr:city": "Georgetown", "addr:housenumber": "21655", "addr:postcode": "19947", "addr:state": "DE", "addr:street": "Biden Avenue", "amenity": "hospital", "beds": "90", "email": "info@sundelaware.com", "healthcare": "rehabilitation", "healthcare:speciality": "mental_health_treatment;substance_abuse_clinic;addiction_treatment", "map": "https://www.google.com/maps/place/SUN+Behavioral+Health+Delaware/@38.6989582,-75.4071774,18z/data=!4m6!3m5!1s0x89b8eb0dba970d4f:0xe242b373136f93ea!8m2!3d38.6989582!4d-75.4078855!16s%2Fg%2F11g86kzbtd?entry=ttu", "name": "Sun Behavioral Delaware", "phone": "+1 302-207-9176", "website": "https://sundelaware.com", "source_id": 10836137936, "osm_type": "node", "facility_type": "hospitals"}}, {"type": "Feature", "geometry": {"type": "Point", "coordinates": [-75.6293435, 39.6397281]}, "properties": {"addr:city": "New Castle", "addr:housenumber": "575", "addr:postcode": "19720", "addr:street": "South Dupont Highway", "amenity": "hospital", "beds": "120", "healthcare:speciality": "psychiatry", "name": "Meadowwood Behavioral Health System", "phone": "+1 302 328 3330", "source_id": 10836152451, "osm_type": "node", "facility_type": "hospitals"}}, {"type": "Feature", "geometry": {"type": "Point", "coordinates": [-75.5554925, 39.1770844]}, "properties": {"addr:city": "Dover", "addr:housenumber": "1240", "addr:postcode": "19904", "addr:state": "DE", "addr:street": "McKee Road", "amenity": "hospital", "beds": "34", "healthcare": "rehabilitation", "name": "Pam Rehab Hospital Of Dover", "phone": "+1 302 672 5800", "source_id": 10836155513, "osm_type": "node", "facility_type": "hospitals"}}, {"type": "Feature", "geometry": {"type": "Point", "coordinates": [-77.106443, 38.8826562]}, "properties": {"addr:city": "Arlington", "addr:housenumber": "3833", "addr:postcode": "22203", "addr:state": "VA", "addr:street": "Fairfax Drive", "addr:unit": "100", "amenity": "hospital", "healthcare": "hospital", "healthcare:speciality": "cardiology", "name": "Inova Cardiology - Ballston", "opening_hours": "Th 08:30-17:00", "operator": "Inova Health System", "operator:type": "private", "operator:wikidata": "Q16996992", "phone": "+1-571-472-3401", "website": "https://www.inova.org/locations/inova-cardiology-ballston", "source_id": 11378462242, "osm_type": "node", "facility_type": "hospitals"}}, {"type": "Feature", "geometry": {"type": "Point", "coordinates": [-77.1063581, 38.8826594]}, "properties": {"addr:city": "Arlington", "addr:housenumber": "3833", "addr:postcode": "22203", "addr:state": "VA", "addr:street": "Fairfax Drive", "addr:unit": "201", "amenity": "hospital", "healthcare": "hospital", "healthcare:speciality": "neurosurgery", "name": "Inova Neurosurgery - Ballston", "opening_hours": "Th 08:00-16:30", "operator": "Inova Health System", "operator:type": "private", "operator:wikidata": "Q16996992", "phone": "+1-571-472-4100", "website": "https://www.inova.org/locations/inova-neurosurgery-ballston", "source_id": 11378462243, "osm_type": "node", "facility_type": "hospitals"}}, {"type": "Feature", "geometry": {"type": "Point", "coordinates": [-77.1062848, 38.8826599]}, "properties": {"addr:city": "Arlington", "addr:housenumber": "3833", "addr:postcode": "22203", "addr:state": "VA", "addr:street": "Fairfax Drive", "addr:unit": "201", "amenity": "hospital", "healthcare": "hospital", "healthcare:speciality": "surgery", "name": "Inova General Surgery - Arlington", "opening_hours": "Mo-Fr 08:30-17:00", "operator": "Inova Health System", "operator:type": "private", "operator:wikidata": "Q16996992", "website": "https://www.inova.org/locations/inova-general-surgery-arlington", "source_id": 11378462244, "osm_type": "node", "facility_type": "hospitals"}}, {"type": "Feature", "geometry": {"type": "Point", "coordinates": [-77.1126619, 39.0140233]}, "properties": {"amenity": "hospital", "healthcare": "hospital", "name": "Nurse's office entrance", "source_id": 12409548489, "osm_type": "node", "facility_type": "hospitals"}}, {"type": "Feature", "geometry": {"type": "Point", "coordinates": [-77.2295346, 38.8573056]}, "properties": {"addr:city": "Falls Church", "addr:housenumber": "3300", "addr:postcode": "22042", "addr:state": "VA", "addr:street": "Gallows Road", "amenity": "hospital", "healthcare": "hospital", "healthcare:speciality": "cardiology;vascular_surgery", "name": "Inova Schar Heart and Vascular", "operator": "Inova Health System", "operator:type": "private", "operator:wikidata": "Q16996992", "source_id": 12438912568, "osm_type": "node", "facility_type": "hospitals"}}, {"type": "Feature", "geometry": {"type": "Point", "coordinates": [-77.2289147, 38.8574379]}, "properties": {"addr:city": "Falls Church", "addr:housenumber": "3300", "addr:postcode": "22042", "addr:state": "VA", "addr:street": "Gallows Road", "amenity": "hospital", "healthcare": "hospital", "healthcare:speciality": "surgery", "name": "Inova Fairfax Surgery Center", "operator": "Inova Health System", "operator:type": "private", "operator:wikidata": "Q16996992", "source_id": 12438912569, "osm_type": "node", "facility_type": "hospitals"}}, {"type": "Feature", "geometry": {"type": "Point", "coordinates": [-77.227209, 38.856508]}, "properties": {"addr:city": "Falls Church", "addr:housenumber": "3300", "addr:postcode": "22042", "addr:state": "VA", "addr:street": "Gallows Road", "amenity": "hospital", "healthcare": "hospital", "healthcare:speciality": "paediatrics", "name": "Inova L.J. Murphy Children's Hospital", "operator": "Inova Health System", "operator:type": "private", "operator:wikidata": "Q16996992", "source_id": 12438912570, "osm_type": "node", "facility_type": "hospitals"}}, {"type": "Feature", "geometry": {"type": "Point", "coordinates": [-77.2270265, 38.8570354]}, "properties": {"addr:city": "Falls Church", "addr:housenumber": "3300", "addr:postcode": "22042", "addr:state": "VA", "addr:street": "Gallows Road", "amenity": "hospital", "healthcare": "hospital", "healthcare:speciality": "gynaecology", "name": "Inova Women's Hospital", "operator": "Inova Health System", "operator:type": "private", "operator:wikidata": "Q16996992", "source_id": 12438912571, "osm_type": "node", "facility_type": "hospitals"}}, {"type": "Feature", "geometry": {"type": "Point", "coordinates": [-77.2268724, 38.8587249]}, "properties": {"amenity": "hospital", "healthcare": "hospital", "healthcare:speciality": "paediatric_surgery;paediatrics;emergency;trauma", "name": "Children's Emergency", "operator": "Inova Health System", "operator:type": "private", "operator:wikidata": "Q16996992", "source_id": 12438912572, "osm_type": "node", "facility_type": "hospitals"}}, {"type": "Feature", "geometry": {"type": "Point", "coordinates": [-77.226552, 38.8576228]}, "properties": {"amenity": "hospital", "healthcare": "hospital", "healthcare:speciality": "emergency;trauma", "name": "Adult Emergency", "operator": "Inova Health System", "operator:type": "private", "operator:wikidata": "Q16996992", "source_id": 12438912573, "osm_type": "node", "facility_type": "hospitals"}}, {"type": "Feature", "geometry": {"type": "Point", "coordinates": [-76.6894156, 39.030442]}, "properties": {"addr:city": "Gambrills", "addr:housenumber": "2535", "addr:postcode": "21054", "addr:state": "MD", "addr:street": "Evergreen Road", "amenity": "hospital", "contact:facebook": "https://www.facebook.com/ArborWaughChapel/", "description": "Assisted Living Facility", "email": "marketing@arborcompany.com", "fax": "+1-443-292-8323", "healthcare": "hospital", "name": "Arbor Terrace Waugh Chapel", "opening_hours": "24/7", "payment:ach": "yes", "payment:cheque": "yes", "payment:credit_cards": "yes", "payment:insurance": "yes", "payment:private_pay": "yes", "payment:veterans_benefits": "yes", "phone": "+1-410-941-3119", "start_date": "2019-06-01", "website": "https://www.arborcompany.com/locations/maryland/gambrills-waugh-chapel", "source_id": 13050102659, "osm_type": "node", "facility_type": "hospitals"}}, {"type": "Feature", "geometry": {"type": "Point", "coordinates": [-78.8660187, 38.45022]}, "properties": {"amenity": "clinic", "ele": "408", "gnis:feature_id": "1790824", "healthcare": "clinic", "name": "Harrisonburg Health Clinic", "source_id": 356602949, "osm_type": "node", "facility_type": "clinics"}}, {"type": "Feature", "geometry": {"type": "Point", "coordinates": [-77.3154206, 38.8497291]}, "properties": {"addr:city": "Fairfax", "addr:housenumber": "10730", "addr:postcode": "22030", "addr:state": "VA", "addr:street": "Main Street", "amenity": "clinic", "gnis:feature_id": "2458475", "healthcare": "clinic", "healthcare:speciality": "surgery", "name": "Fairfax Surgical Center", "operator": "HCA Virginia Health System", "phone": "+1 703-691-0670", "website": "https://fairfaxsurgicalcenter.com/", "source_id": 356605994, "osm_type": "node", "facility_type": "clinics"}}, {"type": "Feature", "geometry": {"type": "Point", "coordinates": [-76.946687, 39.4136905]}, "properties": {"addr:city": "Eldersburg", "addr:housenumber": "1380", "addr:postcode": "21784", "addr:street": "Progress Way", "amenity": "clinic", "gnis:feature_id": "1696347", "healthcare": "clinic", "name": "South Carroll Health & Wellness Pavilion", "source_id": 358247377, "osm_type": "node", "facility_type": "clinics"}}, {"type": "Feature", "geometry": {"type": "Point", "coordinates": [-76.4456102, 38.2719414]}, "properties": {"addr:city": "Patuxent River", "addr:housenumber": "47149", "addr:postcode": "20670", "addr:street": "Buse Road", "amenity": "clinic", "gnis:feature_id": "1709736", "healthcare": "clinic", "name": "Naval Health Clinic Patuxent River", "phone": "+1 301 342 1419", "website": "https://www.med.navy.mil/sites/paxriver/", "source_id": 358250115, "osm_type": "node", "facility_type": "clinics"}}, {"type": "Feature", "geometry": {"type": "Point", "coordinates": [-76.5159582, 39.0556733]}, "properties": {"addr:city": "Arnold", "addr:housenumber": "273", "addr:postcode": "21012", "addr:state": "MD", "addr:street": "Peninsula Farm Road", "amenity": "clinic", "ele": "17", "gnis:feature_id": "1710793", "healthcare": "clinic", "name": "Broadneck Medical Center", "source": "esri_USDOT_Maryland", "source_id": 358250609, "osm_type": "node", "facility_type": "clinics"}}, {"type": "Feature", "geometry": {"type": "Point", "coordinates": [-76.6146825, 39.328787]}, "properties": {"addr:city": "Baltimore", "addr:housenumber": "3333", "addr:postcode": "21218", "addr:street": "North Calvert Street", "amenity": "clinic", "gnis:feature_id": "2356490", "healthcare": "clinic", "name": "Curtis National Hand Center", "phone": "+1 410 235 5405", "website": "http://www.curtishand.com/", "source_id": 358255682, "osm_type": "node", "facility_type": "clinics"}}, {"type": "Feature", "geometry": {"type": "Point", "coordinates": [-77.133924, 39.021811]}, "properties": {"amenity": "clinic", "ele": "103", "gnis:feature_id": "2458466", "healthcare": "clinic", "name": "Center for Back Injury Prevention and Rehabilitation", "source_id": 358256266, "osm_type": "node", "facility_type": "clinics"}}, {"type": "Feature", "geometry": {"type": "Point", "coordinates": [-77.1339494, 39.0219229]}, "properties": {"amenity": "clinic", "ele": "103", "gnis:feature_id": "2458467", "healthcare": "clinic", "name": "Center For Repetitive Motion Disorders", "source_id": 358256267, "osm_type": "node", "facility_type": "clinics"}}, {"type": "Feature", "geometry": {"type": "Point", "coordinates": [-77.0779054, 38.9439474]}, "properties": {"addr:city": "Washington", "addr:housenumber": "4228", "addr:state": "DC", "addr:street": "Wisconsin Avenue Northwest", "amenity": "clinic", "dataset": "buildings", "dcgis:captureyear": "19990331", "dcgis:gis_id": "125658", "dcgis:lot": "0008", "dcgis:square": "1786", "ele": "113", "gnis:feature_id": "531240", "healthcare": "clinic", "healthcare:speciality": "psychiatry", "name": "Psychiatric Institute of Washington", "source": "dcgis", "wikidata": "Q7256225", "source_id": 358959246, "osm_type": "node", "facility_type": "clinics"}}, {"type": "Feature", "geometry": {"type": "Point", "coordinates": [-77.0519217, 38.9053894]}, "properties": {"amenity": "clinic", "ele": "20", "gnis:feature_id": "1984544", "healthcare": "clinic", "name": "Betty Ford Comprehensive Center", "source_id": 358960212, "osm_type": "node", "facility_type": "clinics"}}, {"type": "Feature", "geometry": {"type": "Point", "coordinates": [-77.0330112, 38.9281816]}, "properties": {"addr:city": "Washington", "addr:housenumber": "3020", "addr:postcode": "20009", "addr:state": "DC", "addr:street": "14th Street Northwest", "amenity": "clinic", "gnis:feature_id": "2458462", "healthcare": "clinic", "name": "Unity Health Care - Upper Cardoza", "old_name": "Buckley Upper Cardoza Health Center", "opening_hours": "Mo-Fr 08:00-22:00; Sa,Su 08:00-14:00", "phone": "+1 202-745-4300", "website": "https://www.unityhealthpharmacy.org/app/#/", "source_id": 358961163, "osm_type": "node", "facility_type": "clinics"}}, {"type": "Feature", "geometry": {"type": "Point", "coordinates": [-76.9947, 38.8922]}, "properties": {"amenity": "clinic", "ele": "24", "gnis:feature_id": "2458464", "healthcare": "clinic", "name": "Capitol Hill Medical Clinic", "source_id": 358961167, "osm_type": "node", "facility_type": "clinics"}}, {"type": "Feature", "geometry": {"type": "Point", "coordinates": [-77.0146378, 38.9272503]}, "properties": {"addr:city": "Washington", "addr:housenumber": "111", "addr:postcode": "20010", "addr:street": "Michigan Avenue Northwest", "amenity": "clinic", "gnis:feature_id": "2458469", "healthcare": "clinic", "healthcare:speciality": "paediatrics", "name": "Children's National Hospital - Childrens Health Center", "website": "https://childrensnational.org/choose-childrens/locations-and-directions/primary-care-practices/childrens-health-center--hospital", "source_id": 358961176, "osm_type": "node", "facility_type": "clinics"}}, {"type": "Feature", "geometry": {"type": "Point", "coordinates": [-77.0975863, 38.945921]}, "properties": {"amenity": "clinic", "ele": "69", "gnis:feature_id": "2458472", "healthcare": "clinic", "name": "Spring Valley Regional Outpatient Center", "operator": "Childrens National Medical Center", "source_id": 358961181, "osm_type": "node", "facility_type": "clinics"}}, {"type": "Feature", "geometry": {"type": "Point", "coordinates": [-77.0139, 38.9273]}, "properties": {"addr:city": "Washington", "addr:housenumber": "111", "addr:postcode": "20010", "addr:street": "Michigan Avenue Northwest", "amenity": "clinic", "gnis:feature_id": "2458473", "healthcare": "clinic", "name": "Childrens National Hospital - Adolescent Health Center", "website": "https://childrensnational.org/", "source_id": 358961183, "osm_type": "node", "facility_type": "clinics"}}, {"type": "Feature", "geometry": {"type": "Point", "coordinates": [-77.0133, 38.8959]}, "properties": {"amenity": "clinic", "ele": "12", "gnis:feature_id": "2458478", "healthcare": "clinic", "name": "Federal City Shelter Clinic", "source_id": 358961192, "osm_type": "node", "facility_type": "clinics"}}, {"type": "Feature", "geometry": {"type": "Point", "coordinates": [-77.0353929, 38.9284979]}, "properties": {"amenity": "clinic", "ele": "61", "gnis:feature_id": "2458491", "healthcare": "clinic", "name": "La Clinica del Pueblo", "source_id": 358961223, "osm_type": "node", "facility_type": "clinics"}}, {"type": "Feature", "geometry": {"type": "Point", "coordinates": [-77.1667385, 39.3649019]}, "properties": {"addr:city": "Mount Airy", "addr:housenumber": "1502", "addr:postcode": "21771", "addr:street": "South Main Street", "amenity": "clinic", "healthcare": "clinic", "name": "Mount Airy Health Services", "phone": "+1 301 829 5800", "source_id": 608960258, "osm_type": "node", "facility_type": "clinics"}}, {"type": "Feature", "geometry": {"type": "Point", "coordinates": [-77.0369212, 38.928169]}, "properties": {"addr:city": "Washington", "addr:housenumber": "3055", "addr:postcode": "20009", "addr:state": "DC", "addr:street": "Mount Pleasant Street Northwest", "amenity": "clinic", "dataset": "address", "dcgis:lot": "0175", "dcgis:square": "2594", "healthcare": "clinic", "name": "La Clinica del Pueblo", "source": "dcgis", "source_id": 822361280, "osm_type": "node", "facility_type": "clinics"}}, {"type": "Feature", "geometry": {"type": "Point", "coordinates": [-77.0594804, 38.9366224]}, "properties": {"addr:city": "Washington", "addr:housenumber": "2902", "addr:postcode": "20008", "addr:state": "DC", "addr:street": "Porter Street Northwest", "alt_name:en": "Metro Immediate and Primary Care", "amenity": "clinic", "dataset": "address", "dcgis:lot": "0091", "dcgis:square": "2068", "healthcare": "clinic", "name": "GW Immediate and Primary Care", "source": "dcgis", "website": "https://gwdocsipc.com/location/cleveland-park", "source_id": 1066025085, "osm_type": "node", "facility_type": "clinics"}}, {"type": "Feature", "geometry": {"type": "Point", "coordinates": [-77.2985928, 38.7873807]}, "properties": {"addr:city": "Burke", "addr:housenumber": "6045", "addr:postcode": "22015", "addr:state": "VA", "addr:street": "Burke Centre Parkway", "addr:suite": "M", "addr:unit": "M", "amenity": "clinic", "fax": "+1-703-239-0442", "healthcare": "clinic", "name": "Walk-in Medical Care", "phone": "+1-703-239-0300", "website": "http://www.justwalk-inmedicalcare.com/", "source_id": 1523207345, "osm_type": "node", "facility_type": "clinics"}}, {"type": "Feature", "geometry": {"type": "Point", "coordinates": [-78.6753726, 38.0703706]}, "properties": {"addr:city": "Crozet", "addr:housenumber": "1646", "addr:postcode": "22932", "addr:state": "VA", "addr:street": "Park Ridge Drive", "amenity": "clinic", "healthcare": "clinic", "name": "Sentara Crozet Family Medicine", "opening_hours": "Mo-Th 08:00-17:30; Fr 08:00-17:00", "operator": "Sentara Healthcare", "operator:wikidata": "Q7451179", "operator:wikipedia": "en:Sentara Healthcare", "phone": "+1 434 823 4567", "website": "https://www.sentara.com/charlottesville-virginia/hospitalslocations/locations/martha-jefferson-family-medicine-physicians/simple-locations/crozet-family-medicine.aspx", "source_id": 1606941591, "osm_type": "node", "facility_type": "clinics"}}, {"type": "Feature", "geometry": {"type": "Point", "coordinates": [-76.796403, 39.187731]}, "properties": {"amenity": "clinic", "check_date": "2022-12-09", "healthcare": "clinic", "name": "Pediatrics", "source_id": 2109535695, "osm_type": "node", "facility_type": "clinics"}}, {"type": "Feature", "geometry": {"type": "Point", "coordinates": [-77.0514492, 38.8062415]}, "properties": {"amenity": "clinic", "brand": "LasikPlus", "brand:wikidata": "Q126111242", "healthcare": "clinic", "healthcare:speciality": "ophthalmology", "name": "LasikPlus", "phone": "+1 866-755-2026", "website": "https://www.lasikplus.com/location/alexandria-lasik-center/", "source_id": 2151519987, "osm_type": "node", "facility_type": "clinics"}}, {"type": "Feature", "geometry": {"type": "Point", "coordinates": [-77.4341506, 38.8294744]}, "properties": {"addr:city": "Centreville", "addr:housenumber": "6201", "addr:postcode": "20121", "addr:state": "VA", "addr:street": "Centreville Road", "addr:unit": "200", "amenity": "clinic", "healthcare": "clinic", "name": "Inova Urgent Care \u2013 Centreville", "opening_hours": "Mo-Fr 08:00-20:00; Sa,Su,PH 09:00-16:00; Dec 25 off", "operator": "Inova Health System", "operator:type": "private", "operator:wikidata": "Q16996992", "phone": "+1 703-830-5600", "urgent_care": "yes", "website": "https://www.inova.org/urgent-care/centreville", "source_id": 2222644820, "osm_type": "node", "facility_type": "clinics"}}, {"type": "Feature", "geometry": {"type": "Point", "coordinates": [-77.4657531, 39.0613628]}, "properties": {"amenity": "clinic", "healthcare": "clinic", "name": "Premier Psychiatry Center", "phone": "+1 703-723-5993", "website": "https://premierpsychiatrycenter.com/", "source_id": 2302073156, "osm_type": "node", "facility_type": "clinics"}}, {"type": "Feature", "geometry": {"type": "Point", "coordinates": [-75.6044503, 39.2998328]}, "properties": {"addr:city": "Smyrna", "addr:housenumber": "100", "addr:postcode": "19977", "addr:street": "South Main Street", "alt_name": "Smyrna Medical Center", "amenity": "clinic", "healthcare": "clinic", "internet_access": "wlan", "internet_access:fee": "no", "name": "Smyrna Health & Wellness Center", "operator": "Christiana Care Health System", "phone": "302-659-4444", "website": "http://www.christianacare.org/smyrna", "source_id": 2335026638, "osm_type": "node", "facility_type": "clinics"}}, {"type": "Feature", "geometry": {"type": "Point", "coordinates": [-77.4860293, 38.7671589]}, "properties": {"amenity": "clinic", "healthcare": "clinic", "name": "Hylton Family Women's & Children's Center", "website": "https://www.novanthealthuva.org/services/womens-services/maternity-care/hylton-family-womens--childrens-center-at-prince-william-medical-center.aspx", "source_id": 2354997101, "osm_type": "node", "facility_type": "clinics"}}, {"type": "Feature", "geometry": {"type": "Point", "coordinates": [-77.4881503, 38.767528]}, "properties": {"addr:city": "Manassas", "addr:housenumber": "8650", "addr:street": "Sudley Road", "amenity": "clinic", "healthcare": "clinic", "name": "Medical Building 1 - Health Center", "source_id": 2355003905, "osm_type": "node", "facility_type": "clinics"}}, {"type": "Feature", "geometry": {"type": "Point", "coordinates": [-77.1509587, 38.8668026]}, "properties": {"addr:city": "Falls Church", "addr:housenumber": "6371", "addr:postcode": "22044", "addr:state": "VA", "addr:street": "Leesburg Pike", "amenity": "clinic", "fax": "+1-571-286-5873", "healthcare": "clinic", "healthcare:speciality": "urgent_care", "name": "Inova Urgent Care", "opening_hours": "Mo-Fr 08:00-20:00, Sa-Su 09:00-17:00", "operator": "Inova Health System", "operator:type": "private", "operator:wikidata": "Q16996992", "phone": "+1-571-286-5872", "website": "https://www.gohealthuc.com/inova", "source_id": 2636151240, "osm_type": "node", "facility_type": "clinics"}}, {"type": "Feature", "geometry": {"type": "Point", "coordinates": [-78.9605742, 39.0695206]}, "properties": {"amenity": "clinic", "healthcare": "clinic", "name": "Potomac Valley Family Medicine", "source_id": 2683115162, "osm_type": "node", "facility_type": "clinics"}}, {"type": "Feature", "geometry": {"type": "Point", "coordinates": [-76.9406771, 39.2107091]}, "properties": {"addr:city": "Clarksville", "addr:housenumber": "12272", "addr:postcode": "21029", "addr:state": "MD", "addr:street": "Clarksville Pike", "amenity": "clinic", "healthcare": "clinic", "name": "UNI Urgent Care", "phone": "(443) 656-0306", "website": "https://uniurgentcare.com/", "source_id": 2776322082, "osm_type": "node", "facility_type": "clinics"}}, {"type": "Feature", "geometry": {"type": "Point", "coordinates": [-76.6751605, 39.2715457]}, "properties": {"addr:city": "Baltimore", "addr:postcode": "21229", "addr:street": "Wilkens Avenue", "addr:unit": "102", "amenity": "clinic", "health_specialty": "radiology", "healthcare": "clinic", "name": "Seton Imaging", "note": "I used the tag addr:unit to give the suite number of this business (which may not be the only one in the building).", "phone": "410-368-8675", "source": "personal eperience", "source_id": 2781900902, "osm_type": "node", "facility_type": "clinics"}}, {"type": "Feature", "geometry": {"type": "Point", "coordinates": [-76.8343707, 39.2766855]}, "properties": {"addr:city": "Ellicott City", "addr:housenumber": "3419", "addr:postcode": "21042", "addr:street": "Plumtree Drive", "addr:unit": "Suite 106", "amenity": "clinic", "healthcare": "clinic", "name": "Ellicott City Dialysis Center", "source_id": 2912189203, "osm_type": "node", "facility_type": "clinics"}}, {"type": "Feature", "geometry": {"type": "Point", "coordinates": [-76.5155134, 39.0555845]}, "properties": {"addr:city": "Arnold", "addr:housenumber": "277", "addr:postcode": "21012", "addr:state": "MD", "addr:street": "Peninsula Farm Road", "amenity": "clinic", "healthcare": "clinic", "name": "Allergy & Asthma Associates", "phone": "+1 410 647 2600", "source": "esri_USDOT_Maryland", "website": "https://www.annapollendocsportal.com", "source_id": 2958569577, "osm_type": "node", "facility_type": "clinics"}}, {"type": "Feature", "geometry": {"type": "Point", "coordinates": [-76.7785931, 39.4216702]}, "properties": {"amenity": "clinic", "healthcare": "clinic", "name": "ExpressCare", "source_id": 2976548164, "osm_type": "node", "facility_type": "clinics"}}, {"type": "Feature", "geometry": {"type": "Point", "coordinates": [-77.0240419, 38.9326138]}, "properties": {"addr:city": "Washington", "addr:country": "US", "addr:housenumber": "3422", "addr:postcode": "20010", "addr:state": "DC", "addr:street": "Georgia Avenue Northwest", "amenity": "clinic", "healthcare": "clinic", "name": "Metro Lab Walk-in Clinic", "source_id": 2984529676, "osm_type": "node", "facility_type": "clinics"}}, {"type": "Feature", "geometry": {"type": "Point", "coordinates": [-77.0235219, 38.9293045]}, "properties": {"addr:city": "Washington", "addr:country": "US", "addr:housenumber": "3104", "addr:postcode": "20001", "addr:state": "DC", "addr:street": "Georgia Avenue Northwest", "amenity": "clinic", "check_date": "2023-12-08", "healthcare": "clinic", "name": "B and W Stat Laboratory", "payment:american_express": "yes", "payment:cash": "yes", "payment:discover_card": "yes", "payment:mastercard": "yes", "payment:visa": "yes", "source_id": 2987664440, "osm_type": "node", "facility_type": "clinics"}}, {"type": "Feature", "geometry": {"type": "Point", "coordinates": [-77.021635, 38.918833]}, "properties": {"amenity": "clinic", "healthcare": "clinic", "source_id": 3004999288, "osm_type": "node", "facility_type": "clinics", "name": null}}, {"type": "Feature", "geometry": {"type": "Point", "coordinates": [-77.0214231, 38.918495]}, "properties": {"amenity": "clinic", "healthcare": "clinic", "source_id": 3004999289, "osm_type": "node", "facility_type": "clinics", "name": null}}, {"type": "Feature", "geometry": {"type": "Point", "coordinates": [-76.9491273, 38.8946179]}, "properties": {"addr:city": "Washington", "addr:housenumber": "3937 1/2", "addr:postcode": "20019", "addr:state": "DC", "addr:street": "Minnesota Avenue Northeast", "amenity": "clinic", "healthcare": "clinic", "name": "Egypt Health Center", "source": "Site Visit", "source_id": 3010470453, "osm_type": "node", "facility_type": "clinics"}}, {"type": "Feature", "geometry": {"type": "Point", "coordinates": [-77.2309336, 38.9243547]}, "properties": {"addr:city": "Tysons", "addr:housenumber": "8280", "addr:postcode": "22102", "addr:state": "VA", "addr:street": "Greensboro Drive", "addr:unit": "110", "amenity": "clinic", "brand": "LasikPlus", "brand:wikidata": "Q126111242", "healthcare": "clinic", "healthcare:speciality": "ophthalmology", "name": "LasikPlus", "shop": "optician", "source_id": 3011789278, "osm_type": "node", "facility_type": "clinics"}}, {"type": "Feature", "geometry": {"type": "Point", "coordinates": [-76.6053833, 39.4327082]}, "properties": {"addr:city": "Timonium", "addr:housenumber": "1818", "addr:postcode": "21093", "addr:state": "MD", "addr:street": "Pot Spring Road", "addr:unit": "106", "amenity": "clinic", "healthcare": "clinic", "healthcare:speciality": "travel_clinic;vaccination", "name": "Passport Health Timonium Travel Clinic", "operator": "Passport Health", "operator:type": "private", "operator:wikidata": "Q30270336", "source_id": 3019371926, "osm_type": "node", "facility_type": "clinics"}}, {"type": "Feature", "geometry": {"type": "Point", "coordinates": [-76.7365845, 39.3906351]}, "properties": {"addr:city": "Pikesville", "addr:housenumber": "1838", "addr:postcode": "21208", "addr:state": "MD", "addr:street": "Greene Tree Road", "amenity": "clinic", "healthcare": "clinic", "name": "Chesapeake Urology", "source_id": 3025070384, "osm_type": "node", "facility_type": "clinics"}}, {"type": "Feature", "geometry": {"type": "Point", "coordinates": [-76.5624204, 39.3928741]}, "properties": {"addr:city": "Parkville", "addr:housenumber": "1714", "addr:postcode": "21234", "addr:state": "MD", "addr:street": "Joan Avenue", "amenity": "clinic", "healthcare": "clinic", "healthcare:speciality": "abortion", "name": "Planned Parenthood", "source_id": 3025575963, "osm_type": "node", "facility_type": "clinics"}}, {"type": "Feature", "geometry": {"type": "Point", "coordinates": [-76.5395448, 39.3779429]}, "properties": {"addr:city": "Parkville", "addr:housenumber": "8116 B", "addr:postcode": "21234", "addr:state": "MD", "addr:street": "Harford Road", "amenity": "clinic", "check_date:opening_hours": "2024-12-09", "contact:facebook": "@peacehealthinc", "contact:instagram": "peacehealthcareinc", "healthcare": "clinic", "healthcare:speciality": "weight_loss;general_wellness", "name": "Peace Healthcare", "opening_hours": "Mo-Fr 09:00-17:00; Sa 09:00-14:00; Su off; PH off", "opening_hours:signed": "no", "phone": "+1-410-779-9175", "website": "https://www.peacehealthcareinc.com/", "source_id": 3025603854, "osm_type": "node", "facility_type": "clinics"}}, {"type": "Feature", "geometry": {"type": "Point", "coordinates": [-76.5394994, 39.3780032]}, "properties": {"addr:city": "Parkville", "addr:housenumber": "8118 A", "addr:postcode": "21234", "addr:state": "MD", "addr:street": "Harford Road", "amenity": "clinic", "healthcare": "clinic", "name": "Global Healthcare Systems", "opening_hours": "Mo-Fr 08:30-17:00; Sa 09:00-13:00; Su off", "source_id": 3025603866, "osm_type": "node", "facility_type": "clinics"}}, {"type": "Feature", "geometry": {"type": "Point", "coordinates": [-76.4609235, 39.316712]}, "properties": {"addr:city": "Essex", "addr:housenumber": "1354", "addr:postcode": "21221", "addr:state": "MD", "addr:street": "Eastern Boulevard", "amenity": "clinic", "healthcare": "clinic", "name": "ExpressCare", "opening_hours": "08:00-21:00", "phone": "+1 443 231 5203", "source_id": 3026452555, "osm_type": "node", "facility_type": "clinics"}}, {"type": "Feature", "geometry": {"type": "Point", "coordinates": [-76.4786249, 39.3075393]}, "properties": {"addr:city": "Essex", "addr:housenumber": "404", "addr:postcode": "21221", "addr:state": "MD", "addr:street": "Eastern Boulevard", "amenity": "clinic", "fax": "+1-443-406-3838", "healthcare": "clinic", "healthcare:speciality": "addiction", "name": "Capricorn Health", "phone": "+1-410-398-0590", "website": "https://www.capricornclinic.com/", "source_id": 3026462344, "osm_type": "node", "facility_type": "clinics"}}, {"type": "Feature", "geometry": {"type": "Point", "coordinates": [-76.5173959, 39.3671448]}, "properties": {"addr:city": "Nottingham", "addr:housenumber": "7700", "addr:postcode": "21236", "addr:state": "MD", "addr:street": "Belair Road", "amenity": "clinic", "healthcare": "clinic", "name": "ExpressCare+", "opening_hours": "Mo-Fr 08:00-20:00;Sa-Su 09:00-21:00", "phone": "+1 410 665 0670", "website": "https://whywaitintheer.com/", "source_id": 3029994822, "osm_type": "node", "facility_type": "clinics"}}, {"type": "Feature", "geometry": {"type": "Point", "coordinates": [-76.5420927, 39.3720803]}, "properties": {"addr:city": "Parkville", "addr:housenumber": "7701", "addr:postcode": "21234", "addr:state": "MD", "addr:street": "Harford Road", "amenity": "clinic", "check_date:opening_hours": "2025-08-12", "healthcare": "clinic", "name": "Express Care", "opening_hours": "Mo-Su 09:00-21:00", "phone": "+1 443 438 5147", "source_id": 3029994826, "osm_type": "node", "facility_type": "clinics"}}, {"type": "Feature", "geometry": {"type": "Point", "coordinates": [-76.5058068, 39.2671909]}, "properties": {"addr:city": "Dundalk", "addr:housenumber": "1792", "addr:postcode": "21222", "addr:state": "MD", "addr:street": "Merritt Boulevard", "amenity": "clinic", "healthcare": "clinic", "name": "Dundalk Pediatric Associates", "opening_hours": "Mo-Fr 09:00-13:00,14:00-17:00;Sa 09:00-17:00", "source_id": 3031064626, "osm_type": "node", "facility_type": "clinics"}}, {"type": "Feature", "geometry": {"type": "Point", "coordinates": [-77.2164883, 39.1154257]}, "properties": {"amenity": "clinic", "emergency": "no", "healthcare": "clinic", "name": "MedStar Health: Urgent Care", "source_id": 3052598954, "osm_type": "node", "facility_type": "clinics"}}, {"type": "Feature", "geometry": {"type": "Point", "coordinates": [-77.5043496, 39.0085163]}, "properties": {"addr:city": "Ashburn", "addr:housenumber": "43300", "addr:postcode": "20148", "addr:state": "VA", "addr:street": "Southern Walk Plaza", "addr:unit": "100", "amenity": "clinic", "brand:wikipedia": "en:Domino's Pizza", "emergency": "no", "healthcare": "clinic", "healthcare:speciality": "general", "name": "Leesburg Sterling Family Medicine", "source_id": 3054649333, "osm_type": "node", "facility_type": "clinics"}}, {"type": "Feature", "geometry": {"type": "Point", "coordinates": [-78.4973291, 38.0328565]}, "properties": {"amenity": "clinic", "healthcare": "clinic", "name": "UVA Children's Hospital Clinics", "operator": "University of Virginia Health System", "operator:wikidata": "Q7896537", "source_id": 3058211402, "osm_type": "node", "facility_type": "clinics"}}, {"type": "Feature", "geometry": {"type": "Point", "coordinates": [-78.4974082, 38.0326566]}, "properties": {"amenity": "clinic", "healthcare": "clinic", "name": "UVA Outpatient Surgery Center", "operator": "University of Virginia Health System", "operator:wikidata": "Q7896537", "source_id": 3058211403, "osm_type": "node", "facility_type": "clinics"}}, {"type": "Feature", "geometry": {"type": "Point", "coordinates": [-76.5876333, 39.124717]}, "properties": {"amenity": "clinic", "healthcare": "clinic", "name": "Righttime Medical Care", "source_id": 3076955812, "osm_type": "node", "facility_type": "clinics"}}, {"type": "Feature", "geometry": {"type": "Point", "coordinates": [-75.5510254, 38.0628358]}, "properties": {"addr:city": "Pocomoke City", "addr:postcode": "21851", "addr:street": "Market Street", "amenity": "clinic", "healthcare": "clinic", "name": "Doctor's office", "source": "local_knowledge", "source_id": 3367412827, "osm_type": "node", "facility_type": "clinics"}}, {"type": "Feature", "geometry": {"type": "Point", "coordinates": [-76.5949394, 39.3365312]}, "properties": {"addr:city": "Baltimore", "addr:country": "US", "addr:housenumber": "3900", "addr:postcode": "21218", "addr:state": "MD", "addr:street": "Loch Raven Boulevard", "amenity": "clinic", "branch": "Medical Center", "healthcare": "clinic", "healthcare:for": "veteran", "name": "VA Clinic", "operator": "Veterans Health Administration", "operator:short": "VA", "operator:type": "government", "operator:wikidata": "Q6580225", "operator:wikipedia": "en:Veterans Health Administration", "short_name": "VA", "source_id": 3432392133, "osm_type": "node", "facility_type": "clinics"}}, {"type": "Feature", "geometry": {"type": "Point", "coordinates": [-76.6096322, 39.3186152]}, "properties": {"addr:city": "Baltimore", "addr:country": "US", "addr:housenumber": "2514", "addr:postcode": "21218", "addr:state": "MD", "addr:street": "Greenmount Avenue", "amenity": "clinic", "healthcare": "clinic", "name": "Harwood Health Center", "source_id": 3432414714, "osm_type": "node", "facility_type": "clinics"}}, {"type": "Feature", "geometry": {"type": "Point", "coordinates": [-76.8131667, 39.2304929]}, "properties": {"addr:city": "Columbia", "addr:housenumber": "8820", "addr:postcode": "21045", "addr:state": "MD", "addr:street": "Columbia 100 Parkway", "amenity": "clinic", "healthcare": "clinic", "name": "American Radiology Services", "source_id": 3575553852, "osm_type": "node", "facility_type": "clinics"}}, {"type": "Feature", "geometry": {"type": "Point", "coordinates": [-76.551554, 38.9859575]}, "properties": {"access": "yes", "addr:floor": "G", "addr:housenumber": "122", "addr:street": "Defense Highway", "air_conditioning": "yes", "amenity": "clinic", "check_date": "2024-12-17", "entrance": "main", "healthcare": "clinic", "level": "0", "name": "Chesapeake Medical Imaging", "payment:mastercard": "yes", "payment:visa": "yes", "phone": "+1 410 571 0150", "wheelchair": "yes", "source_id": 3590982631, "osm_type": "node", "facility_type": "clinics"}}, {"type": "Feature", "geometry": {"type": "Point", "coordinates": [-76.9837074, 38.8631449]}, "properties": {"addr:city": "Washington", "addr:housenumber": "1500", "addr:postcode": "20020", "addr:source": "dcgis", "addr:state": "DC", "addr:street": "Galen Street Southeast", "amenity": "clinic", "healthcare": "clinic", "name": "Unity Health Care - Anacostia", "opening_hours": "Mo-Th 08:15-20:00; Fr 08:15-16:45; Sa 08:00-12:00", "phone": "+1 202-610-7160", "website": "https://www.unityhealthcare.org/", "source_id": 3688320236, "osm_type": "node", "facility_type": "clinics"}}, {"type": "Feature", "geometry": {"type": "Point", "coordinates": [-76.9912431, 38.8634404]}, "properties": {"addr:city": "Washington", "addr:country": "US", "addr:housenumber": "2301", "addr:postcode": "20020", "addr:source": "dcgis", "addr:state": "DC", "addr:street": "Martin Luther King Junior Avenue Southeast", "amenity": "clinic", "description": "This clinic provides hormone replacement therapy as gender transition-related services to transgender clients.", "healthcare": "clinic", "healthcare:speciality": "\u2018transHRT\u2019;wikidata=Q5903802", "name": "Whitman-Walker Health Max Robinson Center", "year": "1993", "source_id": 3688609915, "osm_type": "node", "facility_type": "clinics"}}, {"type": "Feature", "geometry": {"type": "Point", "coordinates": [-76.6815171, 39.0349204]}, "properties": {"amenity": "clinic", "healthcare": "clinic", "name": "AAMC Health Services - Waugh Chapel", "source_id": 3697582504, "osm_type": "node", "facility_type": "clinics"}}, {"type": "Feature", "geometry": {"type": "Point", "coordinates": [-77.4131372, 39.4264277]}, "properties": {"amenity": "clinic", "fax": "+1 301-695-6891", "healthcare": "clinic", "healthcare:speciality": "gastroenterology", "name": "Frederick Gastroenterology Associates", "phone": "+1 301-695-6800", "website": "https://www.fgamd.com/", "source_id": 3743565453, "osm_type": "node", "facility_type": "clinics"}}, {"type": "Feature", "geometry": {"type": "Point", "coordinates": [-77.0825088, 38.8921033]}, "properties": {"addr:housenumber": "2012", "addr:street": "Wilson Boulevard", "amenity": "clinic", "check_date": "2024-06-10", "healthcare": "clinic", "healthcare:speciality": "plastic_surgery", "name": "NovaSculpting", "survey:date": "2015-10-05", "source_id": 3773680178, "osm_type": "node", "facility_type": "clinics"}}, {"type": "Feature", "geometry": {"type": "Point", "coordinates": [-76.55174, 38.9859058]}, "properties": {"addr:floor": "1", "addr:housenumber": "122", "addr:street": "Defense Highway", "addr:suite": "210", "air_conditioning": "yes", "amenity": "clinic", "check_date": "2024-12-17", "healthcare": "clinic", "healthcare:speciality": "neurology", "internet_access": "wlan", "internet_access:fee": "customers", "level": "0", "name": "Annapolis Neurology Associates", "opening_hours": "Mo-Th 08:00-16:00; Fr 07:00-15:00; Sa-Su off", "operator:type": "private", "payment:mastercard": "yes", "payment:visa": "yes", "source": "survey", "wheelchair": "yes", "source_id": 3777496933, "osm_type": "node", "facility_type": "clinics"}}, {"type": "Feature", "geometry": {"type": "Point", "coordinates": [-76.762437, 39.283794]}, "properties": {"amenity": "clinic", "healthcare": "clinic", "name": "Ascension Saint Agnes", "source_id": 3836068158, "osm_type": "node", "facility_type": "clinics"}}, {"type": "Feature", "geometry": {"type": "Point", "coordinates": [-77.3304645, 38.5829342]}, "properties": {"addr:city": "Dumfries", "addr:housenumber": "3990", "addr:postcode": "22025", "addr:state": "VA", "addr:street": "Fettler Park Drive", "amenity": "clinic", "entrance": "yes", "healthcare": "clinic", "name": "NextCare", "source": "survey", "source_id": 3841174968, "osm_type": "node", "facility_type": "clinics"}}, {"type": "Feature", "geometry": {"type": "Point", "coordinates": [-76.5976642, 38.561573]}, "properties": {"addr:floor": "G", "addr:housenumber": "130", "addr:street": "Hospital Road", "air_conditioning": "yes", "amenity": "clinic", "check_date": "2023-07-10", "healthcare": "clinic", "healthcare:speciality": "general", "level": "0", "name": "Patriot Urgent Care", "opening_hours": "Mo-Fr 14:00-22:00; Sa-Su 12:00-23:59", "payment:mastercard": "yes", "payment:visa": "yes", "phone": "+1 410 535 8911", "wheelchair": "yes", "source_id": 3852136176, "osm_type": "node", "facility_type": "clinics"}}, {"type": "Feature", "geometry": {"type": "Point", "coordinates": [-77.3351063, 38.6435533]}, "properties": {"addr:city": "Woodbridge", "addr:country": "US", "addr:housenumber": "4158", "addr:postcode": "22193", "addr:state": "VA", "addr:street": "Dale Boulevard", "amenity": "clinic", "entrance": "yes", "healthcare": "clinic", "name": "Dalewood Medical Clinic", "source": "survey", "source_id": 3875609374, "osm_type": "node", "facility_type": "clinics"}}, {"type": "Feature", "geometry": {"type": "Point", "coordinates": [-77.3503973, 38.9781032]}, "properties": {"addr:city": "Reston", "addr:housename": "North Point Village Center", "addr:postcode": "20194", "addr:state": "VA", "addr:street": "North Point Village Center", "alt_name": "Inova Urgent Care Reston", "amenity": "clinic", "check_date:opening_hours": "2025-06-04", "healthcare": "clinic", "name": "INOVA Urgent Care", "opening_hours": "Mo-Su 08:00-20:00", "phone": "+1 571-525-5850", "website": "https://www.inova.org/locations/inova-urgent-care-reston", "wheelchair": "yes", "source_id": 3889466811, "osm_type": "node", "facility_type": "clinics"}}, {"type": "Feature", "geometry": {"type": "Point", "coordinates": [-77.0263848, 38.8986676]}, "properties": {"addr:city": "Washington", "addr:housenumber": "1001", "addr:street": "G Street Northwest", "amenity": "clinic", "branch": "Group", "healthcare": "clinic", "name": "One Medical", "operator": "1Life Healthcare", "operator:type": "private", "operator:wikidata": "Q85727717", "source_id": 3893773465, "osm_type": "node", "facility_type": "clinics"}}, {"type": "Feature", "geometry": {"type": "Point", "coordinates": [-77.1524355, 38.9212228]}, "properties": {"addr:city": "McLean", "addr:housenumber": "6262", "addr:postcode": "22101", "addr:state": "VA", "addr:street": "Old Dominion Drive", "addr:unit": "E", "amenity": "clinic", "healthcare": "clinic", "name": "Old Dominion Urgent Care", "opening_hours": "Mo-Fr 08:00-20:00; Sa 09:00-18:00; Su 10:00-16:00; PH 10:00-16:00", "phone": "+1-703-893-2505", "website": "https://odurgentcare.com/", "source_id": 3909881562, "osm_type": "node", "facility_type": "clinics"}}, {"type": "Feature", "geometry": {"type": "Point", "coordinates": [-76.6036967, 39.2869461]}, "properties": {"amenity": "clinic", "check_date": "2023-07-11", "healthcare": "clinic", "name": "Kaiser Permanente", "operator": "Kaiser Permanente", "operator:short": "KP", "operator:website": "https://healthy.kaiserpermanente.org/", "operator:wikidata": "Q1721601", "operator:wikipedia": "en:Kaiser Permanente", "source_id": 3940092620, "osm_type": "node", "facility_type": "clinics"}}, {"type": "Feature", "geometry": {"type": "Point", "coordinates": [-78.4780285, 38.0406245]}, "properties": {"addr:city": "Charlottesville", "addr:housenumber": "1708", "addr:postcode": "22903", "addr:state": "VA", "addr:street": "Allied Street", "amenity": "clinic", "healthcare": "clinic", "name": "Center for Prenatal and Perinatal Programs", "source_id": 3993304252, "osm_type": "node", "facility_type": "clinics"}}, {"type": "Feature", "geometry": {"type": "Point", "coordinates": [-77.1046297, 38.821718]}, "properties": {"addr:city": "Alexandria", "addr:housenumber": "1200", "addr:street": "North Howard Street", "amenity": "clinic", "healthcare": "clinic", "name": "Alexandria Health Clinic", "source_id": 4042126689, "osm_type": "node", "facility_type": "clinics"}}, {"type": "Feature", "geometry": {"type": "Point", "coordinates": [-77.0835425, 38.8735704]}, "properties": {"addr:housenumber": "2100", "addr:street": "Washington Boulevard", "amenity": "clinic", "healthcare": "clinic", "name": "Arlington Health Clinic", "source_id": 4042126694, "osm_type": "node", "facility_type": "clinics"}}, {"type": "Feature", "geometry": {"type": "Point", "coordinates": [-77.3409019, 38.023284]}, "properties": {"addr:city": "Milford", "addr:housenumber": "17202", "addr:postcode": "22514", "addr:state": "VA", "addr:street": "Richmond Turnpike", "amenity": "clinic", "healthcare": "clinic", "name": "Caroline County Health Department", "source_id": 4042194467, "osm_type": "node", "facility_type": "clinics"}}, {"type": "Feature", "geometry": {"type": "Point", "coordinates": [-76.8629588, 37.9323363]}, "properties": {"addr:city": "Tappahannock", "addr:housenumber": "423", "addr:postcode": "22560", "addr:state": "VA", "addr:street": "N. Church Lane", "healthcare": "clinic", "name": "Essex County Health Department", "opening_hours": "Mo-Fr 08:30-16:30", "operator": "Three Rivers Health District", "operator:type": "public", "phone": "+1 (804) 443-4076", "source_id": 4042802687, "osm_type": "node", "facility_type": "clinics"}}, {"type": "Feature", "geometry": {"type": "Point", "coordinates": [-77.3162549, 38.848901]}, "properties": {"amenity": "clinic", "healthcare": "clinic", "name": "Fairfax County Health Clinic", "source_id": 4042802688, "osm_type": "node", "facility_type": "clinics"}}, {"type": "Feature", "geometry": {"type": "Point", "coordinates": [-77.8096459, 38.7114705]}, "properties": {"amenity": "clinic", "healthcare": "clinic", "name": "Fauquier County Health Department", "source_id": 4042802689, "osm_type": "node", "facility_type": "clinics"}}, {"type": "Feature", "geometry": {"type": "Point", "coordinates": [-78.1152534, 38.2532941]}, "properties": {"amenity": "clinic", "healthcare": "clinic", "name": "Orange County Health Clinic", "source_id": 4042966673, "osm_type": "node", "facility_type": "clinics"}}, {"type": "Feature", "geometry": {"type": "Point", "coordinates": [-78.469198, 38.661806]}, "properties": {"amenity": "clinic", "healthcare": "clinic", "name": "Page County Health Clinic", "source_id": 4042966674, "osm_type": "node", "facility_type": "clinics"}}, {"type": "Feature", "geometry": {"type": "Point", "coordinates": [-78.1597006, 38.7145548]}, "properties": {"amenity": "clinic", "healthcare": "clinic", "name": "Rappahannock County Health Clinic", "source_id": 4042976117, "osm_type": "node", "facility_type": "clinics"}}, {"type": "Feature", "geometry": {"type": "Point", "coordinates": [-76.7620743, 37.9589096]}, "properties": {"addr:city": "Warsaw", "addr:housenumber": "5591", "addr:postcode": "22572", "addr:state": "VA", "addr:street": "West Richmond Road", "amenity": "clinic", "healthcare": "clinic", "name": "Richmond County Health Department", "source_id": 4042976118, "osm_type": "node", "facility_type": "clinics"}}, {"type": "Feature", "geometry": {"type": "Point", "coordinates": [-78.4984925, 38.8873275]}, "properties": {"amenity": "clinic", "healthcare": "clinic", "name": "Shenandoah County Health Clinic", "source_id": 4042983341, "osm_type": "node", "facility_type": "clinics"}}, {"type": "Feature", "geometry": {"type": "Point", "coordinates": [-77.5892611, 38.2022346]}, "properties": {"addr:city": "Spotsylvania", "addr:housenumber": "9104", "addr:postcode": "22553", "addr:state": "VA", "addr:street": "Courthouse Road", "amenity": "clinic", "healthcare": "clinic", "name": "Spotsylvania County Health Department", "opening_hours": "Mo-Fr 08:00-16:30", "operator": "Commonwealth of VA, Department of Health", "source_id": 4042983344, "osm_type": "node", "facility_type": "clinics"}}, {"type": "Feature", "geometry": {"type": "Point", "coordinates": [-78.2044739, 38.9364541]}, "properties": {"amenity": "clinic", "healthcare": "clinic", "name": "Warren County Health Clinic", "source_id": 4043017592, "osm_type": "node", "facility_type": "clinics"}}, {"type": "Feature", "geometry": {"type": "Point", "coordinates": [-78.8997155, 38.0694046]}, "properties": {"amenity": "clinic", "healthcare": "clinic", "name": "Waynesboro Health Department", "source_id": 4043017594, "osm_type": "node", "facility_type": "clinics"}}, {"type": "Feature", "geometry": {"type": "Point", "coordinates": [-76.7749085, 38.071359]}, "properties": {"amenity": "clinic", "healthcare": "clinic", "name": "Westmoreland Health Clinic", "source_id": 4043017595, "osm_type": "node", "facility_type": "clinics"}}, {"type": "Feature", "geometry": {"type": "Point", "coordinates": [-78.1634697, 39.1880908]}, "properties": {"amenity": "clinic", "healthcare": "clinic", "name": "Winchester Health Clinic", "source_id": 4043017596, "osm_type": "node", "facility_type": "clinics"}}, {"type": "Feature", "geometry": {"type": "Point", "coordinates": [-77.3606207, 38.6808765]}, "properties": {"addr:city": "Woodbridge", "addr:housenumber": "12581", "addr:postcode": "22192", "addr:state": "VA", "addr:street": "Milstead Way", "addr:unit": "103", "amenity": "clinic", "healthcare": "clinic", "name": "NextCare Urgent Care", "opening_hours": "Mo-Fr 08:00-20:00; Sa-Su 08:00-16:00", "source": "survey 6/2016", "website": "https://nextcare.com/locations/va/woodbridge/", "source_id": 4276284759, "osm_type": "node", "facility_type": "clinics"}}, {"type": "Feature", "geometry": {"type": "Point", "coordinates": [-76.8107797, 39.1703286]}, "properties": {"addr:city": "Columbia", "addr:housenumber": "7070", "addr:postcode": "21046", "addr:state": "MD", "addr:street": "Samuel Morse Drive", "amenity": "clinic", "healthcare": "clinic", "name": "Kaiser Permanente Columbia Gateway Medical Center", "operator": "Kaiser Permanente", "operator:short": "KP", "operator:website": "https://healthy.kaiserpermanente.org/", "operator:wikidata": "Q1721601", "operator:wikipedia": "en:Kaiser Permanente", "phone": "+1 410 309 4600", "website": "https://healthy.kaiserpermanente.org/maryland-virginia-washington-dc/facilities/Columbia-Gateway-Medical-Center-100422", "source_id": 4319611890, "osm_type": "node", "facility_type": "clinics"}}, {"type": "Feature", "geometry": {"type": "Point", "coordinates": [-76.9534855, 38.9695801]}, "properties": {"addr:city": "Hyattsville", "addr:housenumber": "6525", "addr:postcode": "20782", "addr:street": "Belcrest Road", "amenity": "clinic", "emergency": "no", "healthcare": "clinic", "name": "Prince George's Medical Center", "phone": "+1 301 209 6000", "source_id": 4407146835, "osm_type": "node", "facility_type": "clinics"}}, {"type": "Feature", "geometry": {"type": "Point", "coordinates": [-76.4916078, 38.9887884]}, "properties": {"addr:city": "Annapolis", "addr:housenumber": "250", "addr:postcode": "21402", "addr:street": "Wood Road", "amenity": "clinic", "healthcare": "clinic", "name": "Naval Health Clinic Annapolis - North Severn Clinic", "phone": "+1 410 293 2273", "website": "https://www.med.navy.mil/sites/annapolis/", "source_id": 4416909644, "osm_type": "node", "facility_type": "clinics"}}, {"type": "Feature", "geometry": {"type": "Point", "coordinates": [-77.4825555, 38.7665501]}, "properties": {"addr:city": "Manassas", "addr:country": "US", "addr:housenumber": "8741", "addr:postcode": "20110", "addr:state": "VA", "addr:street": "Plantation Lane", "amenity": "clinic", "entrance": "yes", "healthcare": "clinic", "source": "survey11/2016", "source_id": 4497738270, "osm_type": "node", "facility_type": "clinics", "name": null}}, {"type": "Feature", "geometry": {"type": "Point", "coordinates": [-76.9895429, 38.8649954]}, "properties": {"addr:city": "Washington", "addr:housenumber": "2124", "addr:postcode": "20020", "addr:state": "DC", "addr:street": "Martin Luther King Junior Avenue Southeast", "amenity": "clinic", "healthcare": "clinic", "name": "Health Services for Children with Special Needs, Inc", "website": "https://www.hschealth.org/", "source_id": 4640281775, "osm_type": "node", "facility_type": "clinics"}}, {"type": "Feature", "geometry": {"type": "Point", "coordinates": [-76.9922031, 38.8629533]}, "properties": {"addr:city": "Washington", "addr:housenumber": "2345", "addr:postcode": "20020", "addr:state": "DC", "addr:street": "Martin Luther King Junior Avenue Southeast", "amenity": "clinic", "healthcare": "clinic", "name": "Dr. Yoon Family Medicine", "source_id": 4640551466, "osm_type": "node", "facility_type": "clinics"}}, {"type": "Feature", "geometry": {"type": "Point", "coordinates": [-78.8417563, 38.4306327]}, "properties": {"amenity": "clinic", "healthcare": "clinic", "name": "MedExpress", "operator": "MedExpress", "operator:wikidata": "Q102183820", "source_id": 4746413549, "osm_type": "node", "facility_type": "clinics"}}, {"type": "Feature", "geometry": {"type": "Point", "coordinates": [-78.8407297, 38.4336399]}, "properties": {"amenity": "clinic", "healthcare": "clinic", "name": "RMH Healthcare", "source_id": 4746413567, "osm_type": "node", "facility_type": "clinics"}}, {"type": "Feature", "geometry": {"type": "Point", "coordinates": [-77.0329465, 38.9311433]}, "properties": {"addr:city": "Washington", "addr:housenumber": "3334-3336", "addr:postcode": "20010", "addr:state": "DC", "addr:street": "14th Street Northwest", "amenity": "clinic", "check_date": "2023-10-15", "healthcare": "clinic", "healthcare:speciality": "paediatrics", "name": "Children's National Columbia Heights", "opening_hours": "Mo-Th 08:00-20:00; Fr-Sa 08:00-17:00; Su off", "operator": "Children's National", "website": "https://childrensnational.org/primary-care/columbia-heights", "source_id": 4770094537, "osm_type": "node", "facility_type": "clinics"}}, {"type": "Feature", "geometry": {"type": "Point", "coordinates": [-76.6431105, 39.1472472]}, "properties": {"addr:city": "Glen Burnie", "addr:housenumber": "808", "addr:postcode": "21061", "addr:state": "MD", "addr:street": "Landmark Drive", "amenity": "clinic", "healthcare": "clinic", "name": "Glen Burnie VA Outpatient Clinic", "website": "https://www.maryland.va.gov/locations/Glen_Burnie_VA_Outpatient_Clinic.asp", "source_id": 4783882027, "osm_type": "node", "facility_type": "clinics"}}, {"type": "Feature", "geometry": {"type": "Point", "coordinates": [-77.0343101, 38.9039139]}, "properties": {"amenity": "clinic", "healthcare": "clinic", "name": "Metro Immediate & Primary Care", "name:en": "Metro Immediate & Primary Care", "source_id": 4788354921, "osm_type": "node", "facility_type": "clinics"}}, {"type": "Feature", "geometry": {"type": "Point", "coordinates": [-77.250801, 39.117717]}, "properties": {"addr:city": "Gaithersburg", "addr:housenumber": "12111", "addr:postcode": "20878", "addr:state": "MD", "addr:street": "Darnestown Road", "amenity": "clinic", "healthcare": "clinic", "name": "MedStar Health: Urgent Care", "opening_hours": "Mo-Fr 08:00-20:00; Sa-Su 08:00-16:00", "source_id": 4820839375, "osm_type": "node", "facility_type": "clinics"}}, {"type": "Feature", "geometry": {"type": "Point", "coordinates": [-77.1531622, 38.8726294]}, "properties": {"addr:city": "Falls Church", "addr:housenumber": "6288", "addr:postcode": "22044", "addr:state": "VA", "addr:street": "Arlington Boulevard", "addr:unit": "B", "amenity": "clinic", "brand": "AllCare", "fax": "+1 703-565-1805", "healthcare": "clinic", "healthcare:speciality": "general;emergency", "name": "AllCare Family Medicine & Urgent Care", "opening_hours": "Mo-Fr 08:00-20:00; Sa 09:00-14:00", "phone": "+1 703-565-1888", "website": "https://allcarefamilymed.com/falls-church-va", "source_id": 4828428410, "osm_type": "node", "facility_type": "clinics"}}, {"type": "Feature", "geometry": {"type": "Point", "coordinates": [-76.6670194, 39.4213997]}, "properties": {"amenity": "clinic", "healthcare": "clinic", "name": "Patient First", "source_id": 4966314807, "osm_type": "node", "facility_type": "clinics"}}, {"type": "Feature", "geometry": {"type": "Point", "coordinates": [-75.5998523, 38.6591124]}, "properties": {"addr:city": "Seaford", "addr:housenumber": "13", "addr:postcode": "19973", "addr:state": "DE", "addr:street": "Fallon Avenue", "amenity": "clinic", "healthcare": "clinic", "healthcare:speciality": "clinic", "name": "Seaford Endoscopy Center", "source_id": 5059327445, "osm_type": "node", "facility_type": "clinics"}}, {"type": "Feature", "geometry": {"type": "Point", "coordinates": [-75.5574345, 38.4581702]}, "properties": {"addr:city": "Delmar", "addr:housenumber": "31010", "addr:postcode": "19940", "addr:state": "DE", "addr:street": "Thorton Boulevard", "addr:unit": "2", "amenity": "clinic", "healthcare": "clinic", "name": "Ambient Care Express", "source_id": 5076685253, "osm_type": "node", "facility_type": "clinics"}}, {"type": "Feature", "geometry": {"type": "Point", "coordinates": [-76.952031, 38.9671945]}, "properties": {"addr:city": "Hyattsville", "addr:housenumber": "6041", "addr:postcode": "20782", "addr:state": "MD", "addr:street": "America Boulevard", "amenity": "clinic", "healthcare": "clinic", "level": "1", "name": "MedStar Health", "website": "https://www.medstarhealth.org/locations/urgent-care-hyattsville", "source_id": 5095335746, "osm_type": "node", "facility_type": "clinics"}}, {"type": "Feature", "geometry": {"type": "Point", "coordinates": [-76.7292358, 39.0974444]}, "properties": {"addr:housenumber": "2479", "addr:postcode": "20755", "addr:street": "5th Street", "amenity": "clinic", "healthcare": "clinic", "name": "Fort Meade VA Outpatient Clinic", "opening_hours": "Mo-Fr 08:00-16:30", "phone": "+1-410-305-5300", "website": "https://maryland.va.gov/", "source_id": 5113859421, "osm_type": "node", "facility_type": "clinics"}}, {"type": "Feature", "geometry": {"type": "Point", "coordinates": [-77.0118912, 39.0199854]}, "properties": {"addr:city": "Silver Spring", "addr:housenumber": "20", "addr:postcode": "20901", "addr:state": "MD", "addr:street": "University Boulevard East", "amenity": "clinic", "healthcare": "clinic", "name": "Righttime Medical Care", "phone": "1-888-808-6483", "source": "Righttime Medical Care", "website": "https://www.myrighttime.com", "source_id": 5136245285, "osm_type": "node", "facility_type": "clinics"}}, {"type": "Feature", "geometry": {"type": "Point", "coordinates": [-77.0040053, 38.8993329]}, "properties": {"addr:city": "Washington", "addr:housenumber": "700", "addr:postcode": "20002", "addr:state": "DC", "addr:street": "2nd Street Northeast", "amenity": "clinic", "healthcare": "clinic", "name": "Kaiser Permanente Capitol Hill Medical Center", "operator": "Kaiser Permanente", "operator:short": "KP", "operator:type": "private", "operator:website": "https://healthy.kaiserpermanente.org/", "operator:wikidata": "Q1721601", "operator:wikipedia": "en:Kaiser Permanente", "source_id": 5192606096, "osm_type": "node", "facility_type": "clinics"}}, {"type": "Feature", "geometry": {"type": "Point", "coordinates": [-76.6155085, 39.3175189]}, "properties": {"addr:city": "Baltimore", "addr:housenumber": "2438", "addr:postcode": "21218", "addr:street": "Saint Paul Street", "amenity": "clinic", "check_date": "2022-10-10", "healthcare": "clinic", "name": "Maryland Healthcare Clinic", "opening_hours:signed": "no", "source_id": 5240295164, "osm_type": "node", "facility_type": "clinics"}}, {"type": "Feature", "geometry": {"type": "Point", "coordinates": [-76.8335605, 39.2780604]}, "properties": {"addr:unit": "F", "amenity": "clinic", "healthcare": "clinic", "name": "Audiology Associates", "source_id": 5273559355, "osm_type": "node", "facility_type": "clinics"}}, {"type": "Feature", "geometry": {"type": "Point", "coordinates": [-77.963279, 39.4579343]}, "properties": {"addr:city": "Martinsburg", "addr:housenumber": "121", "addr:postcode": "25401", "addr:state": "WV", "addr:street": "North Queen Street", "amenity": "clinic", "healthcare": "clinic", "name": "Good Samaritan Free Clinic", "source_id": 5278908394, "osm_type": "node", "facility_type": "clinics"}}, {"type": "Feature", "geometry": {"type": "Point", "coordinates": [-77.9576457, 39.4798216]}, "properties": {"addr:city": "Martinsburg", "addr:housenumber": "1355A", "addr:postcode": "25404", "addr:state": "WV", "addr:street": "Old Courthouse Square", "amenity": "clinic", "healthcare": "clinic", "name": "MedExpress Urgent Care", "source_id": 5294525366, "osm_type": "node", "facility_type": "clinics"}}, {"type": "Feature", "geometry": {"type": "Point", "coordinates": [-77.6722878, 39.6246801]}, "properties": {"addr:city": "Hagerstown", "addr:housenumber": "11236", "addr:postcode": "21742", "addr:state": "MD", "addr:street": "Robinwood Drive", "healthcare": "clinic", "name": "Urgent Care", "source_id": 5320428975, "osm_type": "node", "facility_type": "clinics"}}, {"type": "Feature", "geometry": {"type": "Point", "coordinates": [-77.5512629, 38.7335797]}, "properties": {"addr:city": "Bristow", "addr:housenumber": "10322", "addr:postcode": "20136", "addr:state": "VA", "addr:street": "Bristow Center Drive", "amenity": "clinic", "brand": "GoHealth Urgent Care", "brand:wikidata": "Q110282081", "healthcare": "clinic", "name": "Novant Health UVA Urgent Care & Occupational Medicine", "operator": "Novant Health", "operator:wikidata": "Q14956815", "source_id": 5335473906, "osm_type": "node", "facility_type": "clinics"}}, {"type": "Feature", "geometry": {"type": "Point", "coordinates": [-76.6121747, 39.2994445]}, "properties": {"amenity": "clinic", "healthcare": "clinic", "name": "Divine Marcy Inc. Counseling & Life Coaching", "phone": "+1 410 685 2830", "source_id": 5397237393, "osm_type": "node", "facility_type": "clinics"}}, {"type": "Feature", "geometry": {"type": "Point", "coordinates": [-76.6121702, 39.2994061]}, "properties": {"amenity": "clinic", "healthcare": "clinic", "name": "Mount Vernon Spine & Rehab", "source_id": 5397237397, "osm_type": "node", "facility_type": "clinics"}}, {"type": "Feature", "geometry": {"type": "Point", "coordinates": [-78.1899941, 38.9636143]}, "properties": {"amenity": "clinic", "healthcare": "clinic", "name": "Valley Health Urgent Care", "source_id": 5434439928, "osm_type": "node", "facility_type": "clinics"}}, {"type": "Feature", "geometry": {"type": "Point", "coordinates": [-77.0432779, 38.922513]}, "properties": {"amenity": "clinic", "healthcare": "clinic", "name": "MedStar Prompt Care", "source_id": 5438177376, "osm_type": "node", "facility_type": "clinics"}}, {"type": "Feature", "geometry": {"type": "Point", "coordinates": [-77.6814296, 39.6216485]}, "properties": {"addr:city": "Hagerstown", "addr:housenumber": "11110", "addr:postcode": "21740", "addr:state": "MD", "addr:street": "Medical Campus Road", "amenity": "clinic", "healthcare": "clinic", "name": "Robinwood Professional Center", "operator": "Meritus Health", "website": "https://www.meritushealth.com/Our-Services/Meritus-Medical-Center/For-Hospital-Patients-and-Visitors/Visitor-Information/Robinwood-Professional-Center-Map.aspx", "source_id": 5476112010, "osm_type": "node", "facility_type": "clinics"}}, {"type": "Feature", "geometry": {"type": "Point", "coordinates": [-76.7265314, 39.2897749]}, "properties": {"addr:postcode": "21228", "amenity": "clinic", "healthcare": "clinic", "name": "Antorian Health, LCC", "source_id": 5512365222, "osm_type": "node", "facility_type": "clinics"}}, {"type": "Feature", "geometry": {"type": "Point", "coordinates": [-77.9874993, 39.4623836]}, "properties": {"addr:city": "Martinsburg", "addr:housenumber": "214", "addr:postcode": "25401", "addr:state": "WV", "addr:street": "Viking Way", "amenity": "clinic", "healthcare": "clinic", "healthcare:speciality": "chiropractic", "name": "McCray Chiropractic & Health Restoration Clinic", "source_id": 5538299204, "osm_type": "node", "facility_type": "clinics"}}, {"type": "Feature", "geometry": {"type": "Point", "coordinates": [-77.0431537, 38.9234532]}, "properties": {"addr:city": "Washington", "addr:housenumber": "1827", "addr:postcode": "20009", "addr:state": "DC", "addr:street": "Adams Mill Road Northwest", "amenity": "clinic", "healthcare": "clinic", "name": "One Medical Group", "operator": "1Life Healthcare", "operator:type": "private", "operator:wikidata": "Q85727717", "source_id": 5543231113, "osm_type": "node", "facility_type": "clinics"}}, {"type": "Feature", "geometry": {"type": "Point", "coordinates": [-76.5614693, 38.941957]}, "properties": {"addr:city": "Edgewater", "addr:country": "US", "addr:housenumber": "3059", "addr:postcode": "21037", "addr:state": "MD", "addr:street": "Solomons Island Road", "amenity": "clinic", "check_date": "2024-01-07", "email": "edgewaterteam@afcurgentcare.com", "healthcare": "clinic", "name": "AFC Urgent Care", "opening_hours": "Su 08:00-18:00; Mo-Fr 08:00-20:00; Sa 08:00-18:00", "operator": "AFC Urgent Care", "operator:wikidata": "Q110552174", "phone": "+1 410 956 3394", "urgent_care": "yes", "website": "https://www.afcurgentcareedgewater.com/", "wheelchair": "yes", "source_id": 5576332410, "osm_type": "node", "facility_type": "clinics"}}, {"type": "Feature", "geometry": {"type": "Point", "coordinates": [-76.5657418, 39.2859017]}, "properties": {"addr:city": "Baltimore", "addr:housenumber": "3700", "addr:postcode": "21224", "addr:street": "Fleet Street", "addr:unit": "110", "amenity": "clinic", "healthcare": "clinic", "name": "American Radiology", "source_id": 5581413489, "osm_type": "node", "facility_type": "clinics"}}, {"type": "Feature", "geometry": {"type": "Point", "coordinates": [-77.9636715, 39.4583326]}, "properties": {"addr:city": "Martinsburg", "addr:housenumber": "142", "addr:postcode": "25401", "addr:state": "WV", "addr:street": "North Queen Street", "addr:unit": "120", "amenity": "clinic", "description": "Center Inc. focuses on five critical areas: Human resources, health, education, the environment, hunger and volunteer service.", "healthcare": "clinic", "name": "Center Inc.", "source_id": 5590213548, "osm_type": "node", "facility_type": "clinics"}}, {"type": "Feature", "geometry": {"type": "Point", "coordinates": [-77.4961129, 38.2429306]}, "properties": {"addr:city": "Fredericksburg", "addr:housenumber": "10401", "addr:postcode": "22408", "addr:state": "VA", "addr:street": "Spotsylvania Avenue", "addr:unit": "Suite 103", "amenity": "clinic", "emergency": "yes", "healthcare": "clinic", "healthcare:speciality": "emergency", "level": "1", "name": "Mary Washington Emergency & Outpatient Center - Lee's Hill", "opening_hours": "24/7", "operator": "Mary Washington Healthcare", "phone": "+1 540 741 0555", "website": "https://www.marywashingtonhealthcare.com/Our-Services/Emergency-Services/Lees-Hill-ER.aspx", "source_id": 5590823178, "osm_type": "node", "facility_type": "clinics"}}, {"type": "Feature", "geometry": {"type": "Point", "coordinates": [-77.3469043, 39.3283525]}, "properties": {"addr:city": "Frederick", "addr:housenumber": "3430", "addr:postcode": "21704", "addr:street": "Worthington Boulevard", "amenity": "clinic", "healthcare": "clinic", "name": "Immediate Care Urbana", "opening_hours": "Mo-Fr 10:00-20:00; Sa,Su 08:00-18:00", "operator": "Monocacy Health Partners", "phone": "+1 240 566 7300", "urgent_care": "yes", "website": "http://www.monocacyhealthpartners.org/immcare", "source_id": 5630536839, "osm_type": "node", "facility_type": "clinics"}}, {"type": "Feature", "geometry": {"type": "Point", "coordinates": [-77.023853, 38.9317464]}, "properties": {"addr:housenumber": "3326", "addr:street": "Georgia Avenue Northwest", "amenity": "clinic", "check_date": "2023-12-08", "email": "contact@marc-llc.net", "healthcare": "clinic", "name": "MARC", "opening_hours": "Mo-Fr 08:00-16:00; Sa 08:00-12:00; Su off", "phone": "+1 202-722-0122", "source_id": 5925500793, "osm_type": "node", "facility_type": "clinics"}}, {"type": "Feature", "geometry": {"type": "Point", "coordinates": [-76.3305376, 39.5018528]}, "properties": {"addr:city": "Bel Air", "addr:housenumber": "208", "addr:postcode": "21015", "addr:state": "MD", "addr:street": "Plumtree Road", "addr:unit": "G", "amenity": "clinic", "healthcare": "clinic", "healthcare:speciality": "endoscopy", "name": "The Endoscopy Center at Bel Air", "source_id": 5965069687, "osm_type": "node", "facility_type": "clinics"}}, {"type": "Feature", "geometry": {"type": "Point", "coordinates": [-76.3240209, 39.4963902]}, "properties": {"addr:city": "Bel Air", "addr:housenumber": "2214", "addr:postcode": "21015", "addr:state": "MD", "addr:street": "Old Emmorton Road", "addr:unit": "100", "amenity": "clinic", "fax": "410-838-1595", "healthcare": "clinic", "healthcare:speciality": "endoscopy", "name": "Harford Endoscopy Center", "phone": "410-698-6422", "website": "https://www.harfordendoscopy.com/locations/harford-endoscopy-center.html", "source_id": 5967634351, "osm_type": "node", "facility_type": "clinics"}}, {"type": "Feature", "geometry": {"type": "Point", "coordinates": [-76.3258497, 39.5020507]}, "properties": {"addr:city": "Bel Air", "addr:housenumber": "2015", "addr:postcode": "21015", "addr:state": "MD", "addr:street": "Emmorton Road", "addr:unit": "203", "amenity": "clinic", "fixme": "pin randomly placed", "healthcare": "clinic", "healthcare:speciality": "transcranial_magnetic_stimulation", "level": "2", "name": "Greenbrook TMS NeuroHealth Centers", "phone": "855-755-4867", "website": "https://www.greenbrooktms.com/", "source_id": 5967636111, "osm_type": "node", "facility_type": "clinics"}}, {"type": "Feature", "geometry": {"type": "Point", "coordinates": [-76.3172566, 39.4340627]}, "properties": {"addr:city": "Edgewood", "addr:housenumber": "1833", "addr:postcode": "21040", "addr:state": "MD", "addr:street": "Pulaski Highway", "addr:unit": "A", "amenity": "clinic", "healthcare": "clinic", "healthcare:speciality": "mental_health", "name": "Empowering Minds Resource Center", "phone": "410-484-2306", "website": "https://emrcgroup.org/", "source_id": 5970707057, "osm_type": "node", "facility_type": "clinics"}}, {"type": "Feature", "geometry": {"type": "Point", "coordinates": [-76.31361, 39.4358692]}, "properties": {"addr:city": "Edgewood", "addr:housenumber": "1952", "addr:postcode": "21040", "addr:state": "MD", "addr:street": "Pulaski Highway", "addr:unit": "B", "amenity": "clinic", "fixme": "proper tagging", "healthcare": "clinic", "name": "Nova Pain Center", "phone": "+1-410-676-1463", "website": "https://www.novapaincenter.com/", "source_id": 5970707208, "osm_type": "node", "facility_type": "clinics"}}, {"type": "Feature", "geometry": {"type": "Point", "coordinates": [-76.6065076, 39.3288181]}, "properties": {"amenity": "clinic", "check_date:opening_hours": "2023-04-06", "healthcare": "clinic", "name": "Adullum Community Healthcare Center", "office": "yes", "opening_hours:signed": "no", "phone": "+1 410-889-1133", "source_id": 5991929051, "osm_type": "node", "facility_type": "clinics"}}, {"type": "Feature", "geometry": {"type": "Point", "coordinates": [-76.445785, 39.3336385]}, "properties": {"addr:housenumber": "101", "amenity": "clinic", "healthcare": "clinic", "name": "ExpressCare", "opening_hours": "08:00-21:00", "source_id": 6014388304, "osm_type": "node", "facility_type": "clinics"}}, {"type": "Feature", "geometry": {"type": "Point", "coordinates": [-76.4647604, 39.3122803]}, "properties": {"amenity": "clinic", "healthcare": "clinic", "name": "Endoscopy Center of Essex", "phone": "+1 410 391 8300", "source_id": 6019960817, "osm_type": "node", "facility_type": "clinics"}}, {"type": "Feature", "geometry": {"type": "Point", "coordinates": [-76.4664624, 39.3118769]}, "properties": {"amenity": "clinic", "healthcare": "clinic", "name": "Pediatrics & Adolescent Care", "source_id": 6019974356, "osm_type": "node", "facility_type": "clinics"}}, {"type": "Feature", "geometry": {"type": "Point", "coordinates": [-76.4397557, 39.3293801]}, "properties": {"addr:city": "Middle River", "addr:housenumber": "2201 B", "addr:postcode": "21220", "addr:state": "MD", "addr:street": "Eastern Boulevard", "amenity": "clinic", "healthcare": "clinic", "name": "Sunrise Pain Management Professionals LLC", "phone": "+1 443 596 3865", "source_id": 6020731777, "osm_type": "node", "facility_type": "clinics"}}, {"type": "Feature", "geometry": {"type": "Point", "coordinates": [-76.6219777, 39.2877846]}, "properties": {"addr:city": "Baltimore", "addr:housenumber": "29", "addr:postcode": "21201", "addr:state": "MD", "addr:street": "South Paca Street", "amenity": "clinic", "healthcare": "clinic", "name": "University of Family & Community Medicine", "source_id": 6047713933, "osm_type": "node", "facility_type": "clinics"}}, {"type": "Feature", "geometry": {"type": "Point", "coordinates": [-76.6224292, 39.2879681]}, "properties": {"amenity": "clinic", "healthcare": "clinic", "name": "University of Maryland Coordinated Care Center", "source_id": 6047714400, "osm_type": "node", "facility_type": "clinics"}}, {"type": "Feature", "geometry": {"type": "Point", "coordinates": [-78.8543623, 38.4273113]}, "properties": {"amenity": "clinic", "healthcare": "clinic", "name": "Harrisonburg Pediatrics", "source_id": 6096320324, "osm_type": "node", "facility_type": "clinics"}}, {"type": "Feature", "geometry": {"type": "Point", "coordinates": [-76.8226826, 39.2275991]}, "properties": {"addr:city": "Columbia", "addr:housenumber": "8950", "addr:postcode": "21045", "addr:state": "MD", "addr:street": "Old Annapolis Road", "addr:unit": "100", "description": "Continuum Autism Spectrum Alliance Columbia MD serves the state of Maryland, including Montgomery, Prince Georges, Howard, Baltimore, Harford, Cecil, and Anne Arundel Counties.", "email": "contact@behavioralhealthservices.net", "healthcare": "clinic", "name": "Continuum Autism Spectrum Alliance Columbia MD", "opening_hours": "Mo - Sa 08:30-17:00", "payment:cash": "yes", "payment:mastercard": "yes", "payment:visa": "yes", "website": "https://www.autismspectrumalliance.com/maryland/", "source_id": 6125633191, "osm_type": "node", "facility_type": "clinics"}}, {"type": "Feature", "geometry": {"type": "Point", "coordinates": [-76.4872257, 39.3514761]}, "properties": {"amenity": "clinic", "healthcare": "clinic", "healthcare:speciality": "endocrinology", "name": "MedStar Health Primary Care Endocrinology", "opening_hours": "Mo-Fr 08:00-16:30", "operator": "MedStsr Health", "phone": "+1 410 687 2300;+1 443 777 6351", "source_id": 6135213605, "osm_type": "node", "facility_type": "clinics"}}, {"type": "Feature", "geometry": {"type": "Point", "coordinates": [-76.6211108, 39.4310231]}, "properties": {"amenity": "clinic", "healthcare": "clinic", "healthcare:speciality": "paediatrics", "name": "PM Pediatrics", "opening_hours": "Mo-Sa 12:00-18:00; Su 10:00-24:00", "operator": "PM Pediatrics", "operator:wikidata": "Q111445007", "phone": "+1-443-432-2767", "website": "https://www.pmpediatrics.com/", "source_id": 6138439260, "osm_type": "node", "facility_type": "clinics"}}, {"type": "Feature", "geometry": {"type": "Point", "coordinates": [-77.5248997, 39.0900815]}, "properties": {"addr:unit": "119", "amenity": "clinic", "healthcare": "clinic", "name": "My Wellness Physicians", "opening_hours": "Mo-Fr 08:30-17:30", "source_id": 6139278007, "osm_type": "node", "facility_type": "clinics"}}, {"type": "Feature", "geometry": {"type": "Point", "coordinates": [-77.1705805, 38.8698389]}, "properties": {"addr:city": "Falls Church", "addr:housenumber": "6565", "addr:state": "VA", "addr:street": "Arlington Boulevard", "amenity": "clinic", "healthcare": "clinic", "healthcare:speciality": "paediatrics", "name": "Capital Area Pediatrics-Sleepy Hollow", "source_id": 6162225178, "osm_type": "node", "facility_type": "clinics"}}, {"type": "Feature", "geometry": {"type": "Point", "coordinates": [-77.1704544, 38.869864]}, "properties": {"addr:city": "Falls Church", "addr:housenumber": "6565", "addr:state": "VA", "addr:street": "Arlington Boulevard", "amenity": "clinic", "healthcare": "clinic", "healthcare:speciality": "physiotherapy", "name": "Advantage Physical Therapy", "source_id": 6162225179, "osm_type": "node", "facility_type": "clinics"}}, {"type": "Feature", "geometry": {"type": "Point", "coordinates": [-77.1174512, 38.8479852]}, "properties": {"addr:city": "Falls Church", "addr:housenumber": "3517", "addr:postcode": "22041", "addr:state": "VA", "addr:street": "South Jefferson Street", "amenity": "clinic", "email": "info@xcelurgentcare.com", "healthcare": "clinic", "healthcare:speciality": "emergency", "name": "Xcel Urgent Care", "opening_hours": "Mo-Su 09:00-19:00", "phone": "+1-844-923-5227", "walk-in": "yes", "website": "https://xcelurgentcare.com/", "wheelchair": "yes", "source_id": 6168666709, "osm_type": "node", "facility_type": "clinics"}}, {"type": "Feature", "geometry": {"type": "Point", "coordinates": [-76.3324996, 39.4965901]}, "properties": {"addr:city": "Bel Air", "addr:housenumber": "2014", "addr:postcode": "21015", "addr:state": "MD", "addr:street": "South Tollgate Road", "addr:unit": "208", "amenity": "clinic", "fax": "443-372-5365", "healthcare": "clinic", "healthcare:speciality": "psychiatry", "healthcare_1": "psychotherapist", "name": "American Psychiatric Care", "phone": "410-670-3076", "website": "https://www.americanpsychcare.com", "source_id": 6193349120, "osm_type": "node", "facility_type": "clinics"}}, {"type": "Feature", "geometry": {"type": "Point", "coordinates": [-77.2227687, 38.9059036]}, "properties": {"addr:city": "Vienna", "addr:housenumber": "2102", "addr:postcode": "22182", "addr:state": "VA", "addr:street": "Gallows Road", "addr:unit": "C", "amenity": "clinic", "healthcare": "clinic", "healthcare:speciality": "dermatology", "name": "Ximena Skin Care Clinic", "phone": "+1 703-848-8884", "website": "https://ximenaskincare.com/", "source_id": 6197821592, "osm_type": "node", "facility_type": "clinics"}}, {"type": "Feature", "geometry": {"type": "Point", "coordinates": [-76.782501, 39.2091934]}, "properties": {"addr:unit": "F", "healthcare": "clinic", "name": "Ouch! Urgent Care", "source_id": 6204770844, "osm_type": "node", "facility_type": "clinics"}}, {"type": "Feature", "geometry": {"type": "Point", "coordinates": [-76.7821842, 39.2090638]}, "properties": {"addr:unit": "H", "amenity": "clinic", "contact:phone": "+1 443-275-7800", "contact:website": "http://columbia-surgical.com/", "healthcare": "clinic", "name": "Columbia Surgical Institute", "source_id": 6204770850, "osm_type": "node", "facility_type": "clinics"}}, {"type": "Feature", "geometry": {"type": "Point", "coordinates": [-76.7824951, 39.2095547]}, "properties": {"addr:unit": "V", "amenity": "clinic", "contact:website": "http://www.howardwellnesscenter.com/", "healthcare": "clinic", "healthcare:speciality": "general", "name": "Family Medical & Dental Wellness Center", "source_id": 6204770860, "osm_type": "node", "facility_type": "clinics"}}, {"type": "Feature", "geometry": {"type": "Point", "coordinates": [-77.4711469, 39.0598547]}, "properties": {"addr:unit": "104", "amenity": "doctors", "healthcare": "clinic", "name": "ExpressCare", "opening_hours": "Mo-Su 08:00 - 21:00", "phone": "+1 571-707-8129", "website": "http://www.whywaitintheer.com/ashburn.php", "source_id": 6220282588, "osm_type": "node", "facility_type": "clinics"}}, {"type": "Feature", "geometry": {"type": "Point", "coordinates": [-77.1192253, 39.0554307]}, "properties": {"addr:city": "Rockville", "addr:housenumber": "12220", "addr:postcode": "20852", "addr:state": "MD", "addr:street": "Rockville Pike", "amenity": "clinic", "check_date": "2024-02-24", "healthcare": "clinic", "name": "5.11", "payment:cash": "yes", "payment:credit_cards": "yes", "payment:debit_cards": "yes", "source_id": 6255886373, "osm_type": "node", "facility_type": "clinics"}}, {"type": "Feature", "geometry": {"type": "Point", "coordinates": [-77.119244, 39.0555674]}, "properties": {"addr:city": "Rockville", "addr:housenumber": "12222", "addr:postcode": "20852", "addr:state": "MD", "addr:street": "Rockville Pike", "brand": "Men's Wearhouse", "brand:wikidata": "Q57405513", "check_date": "2024-02-24", "clothes": "suits", "healthcare": "clinic", "name": "Men's Wearhouse", "payment:cash": "yes", "payment:credit_cards": "yes", "payment:debit_cards": "yes", "phone": "+1 240 766 5423", "shop": "clothes", "website": "http://superlicefighters.com", "source_id": 6255902249, "osm_type": "node", "facility_type": "clinics"}}, {"type": "Feature", "geometry": {"type": "Point", "coordinates": [-75.9499306, 39.6111063]}, "properties": {"addr:housenumber": "101", "addr:postcode": "21901", "addr:street": "North East Plaza", "amenity": "clinic", "healthcare": "clinic", "healthcare:speciality": "urgent", "name": "ChristianaCare-GoHealth Urgent Care", "opening_hours": "Mo-Su 08:00-20:00", "phone": "410-656-7867", "website": "https://www.gohealthuc.com/christianacare/locations/north-east", "wheelchair": "yes", "source_id": 6314383011, "osm_type": "node", "facility_type": "clinics"}}, {"type": "Feature", "geometry": {"type": "Point", "coordinates": [-78.4711456, 38.0823502]}, "properties": {"amenity": "clinic", "healthcare": "clinic", "name": "The Wave Clinic", "source_id": 6345782323, "osm_type": "node", "facility_type": "clinics"}}, {"type": "Feature", "geometry": {"type": "Point", "coordinates": [-78.4709782, 38.0822975]}, "properties": {"amenity": "clinic", "healthcare": "clinic", "name": "PT @ ACAC", "source_id": 6345782324, "osm_type": "node", "facility_type": "clinics"}}, {"type": "Feature", "geometry": {"type": "Point", "coordinates": [-76.0867843, 38.7839494]}, "properties": {"addr:city": "Easton", "addr:housenumber": "28522", "addr:postcode": "21601", "addr:state": "MD", "addr:street": "Marlboro Avenue", "addr:unit": "C", "amenity": "clinic", "healthcare": "clinic", "name": "University of Maryland Urgent Care", "short_name": "UM Urgent Care", "website": "https://www.umms.org/health-services/urgent-care", "source_id": 6376336895, "osm_type": "node", "facility_type": "clinics"}}, {"type": "Feature", "geometry": {"type": "Point", "coordinates": [-76.3930666, 39.4923831]}, "properties": {"addr:city": "Fallston", "addr:housenumber": "2315", "addr:postcode": "21047", "addr:state": "MD", "addr:street": "Belair Road", "addr:unit": "C1", "amenity": "clinic", "fax": "+1 443-966-3901", "healthcare": "clinic", "name": "University of Maryland Urgent Care", "phone": "+1 443-966-3900", "short_name": "UM Urgent Care", "website": "https://www.umms.org/health-services/urgent-care", "source_id": 6471379212, "osm_type": "node", "facility_type": "clinics"}}, {"type": "Feature", "geometry": {"type": "Point", "coordinates": [-76.3059887, 39.4698312]}, "properties": {"addr:city": "Abingdon", "addr:housenumber": "3400", "addr:postcode": "21009", "addr:state": "MD", "addr:street": "Box Hill Corporate Center Drive", "addr:unit": "100", "amenity": "clinic", "healthcare": "clinic", "healthcare:speciality": "family_medicine;cardiology;gastroenterology", "name": "Abingdon Medical Center", "operator": "Kaiser Permanente", "operator:short": "KP", "operator:website": "https://healthy.kaiserpermanente.org/", "operator:wikidata": "Q1721601", "operator:wikipedia": "en:Kaiser Permanente", "website": "https://healthy.kaiserpermanente.org/maryland-virginia-washington-dc/facilities/abingdon-medical-center-330981", "source_id": 6476920936, "osm_type": "node", "facility_type": "clinics"}}, {"type": "Feature", "geometry": {"type": "Point", "coordinates": [-76.3326357, 39.4971927]}, "properties": {"addr:city": "Bel Air", "addr:housenumber": "2012", "addr:postcode": "21015", "addr:state": "MD", "addr:street": "South Tollgate Road", "addr:unit": "106", "amenity": "clinic", "fixme": "unverified pin placement, but it should be here / around here, not sure of proper tagging", "healthcare": "clinic", "healthcare:speciality": "addiction", "name": "Bel Air Center for Addictions", "phone": "443-504-4710", "website": "https://www.belaircenterforaddictions.com/", "source_id": 6479097697, "osm_type": "node", "facility_type": "clinics"}}, {"type": "Feature", "geometry": {"type": "Point", "coordinates": [-76.3328724, 39.4971042]}, "properties": {"addr:city": "Bel Air", "addr:housenumber": "2012", "addr:postcode": "21015", "addr:state": "MD", "addr:street": "South Tollgate Road", "amenity": "clinic", "fax": "443-371-9751", "fixme": "unsure of address orientation endianess, or pin placement", "healthcare": "clinic", "healthcare:speciality": "addiction;pain_control;primary_care", "name": "Wellspring Clinic", "phone": "443-371-9750", "website": "https://www.wellspringclinicmd.com", "source_id": 6479097703, "osm_type": "node", "facility_type": "clinics"}}, {"type": "Feature", "geometry": {"type": "Point", "coordinates": [-76.3556246, 39.538926]}, "properties": {"addr:city": "Bel Air", "addr:housenumber": "4", "addr:postcode": "21014", "addr:state": "MD", "addr:street": "West Broadway", "amenity": "clinic", "email": "info@mdic1.com", "fax": "+1-443-955-5736", "healthcare": "clinic", "healthcare:speciality": "urgent", "name": "MD Immediate Care", "phone": "+1-443-243-8894", "website": "https://www.mdic1.com/", "source_id": 6483163168, "osm_type": "node", "facility_type": "clinics"}}, {"type": "Feature", "geometry": {"type": "Point", "coordinates": [-76.3734854, 39.56096]}, "properties": {"addr:city": "Forest Hill", "addr:housenumber": "1528", "addr:postcode": "21050", "addr:state": "MD", "addr:street": "Rock Spring Road", "addr:unit": "100", "amenity": "clinic", "fax": "+1 443-776-4085", "healthcare": "clinic", "healthcare:speciality": "urgent", "name": "University of Maryland Urgent Care", "opening_hours": "Mo-Su 08:00-20:00", "phone": "+1 443-776-1131", "short_name": "UM Urgent Care", "website": "https://www.umms.org/health-services/urgent-care", "source_id": 6493756279, "osm_type": "node", "facility_type": "clinics"}}, {"type": "Feature", "geometry": {"type": "Point", "coordinates": [-76.3239792, 39.4326865]}, "properties": {"addr:city": "Edgewood", "addr:housenumber": "1401", "addr:postcode": "21040", "addr:state": "MD", "addr:street": "Pulaski Highway", "addr:unit": "W", "amenity": "clinic", "fax": "+1-410-671-6901", "healthcare": "clinic", "healthcare:speciality": "urgent", "name": "Infinite Medical Express", "phone": "+1-410-671-6900", "website": "https://www.infinitemedicalexpress.com/", "source_id": 6536154172, "osm_type": "node", "facility_type": "clinics"}}, {"type": "Feature", "geometry": {"type": "Point", "coordinates": [-76.5999703, 39.2689227]}, "properties": {"addr:city": "Baltimore", "addr:housenumber": "1702", "addr:postcode": "21230", "addr:state": "MD", "addr:street": "Whetstone Way", "amenity": "clinic", "healthcare": "clinic", "healthcare:speciality": "travel_clinic;vaccination", "name": "Passport Health Baltimore Travel Clinic", "operator": "Passport Health", "operator:type": "private", "operator:wikidata": "Q30270336", "source_id": 6610533656, "osm_type": "node", "facility_type": "clinics"}}, {"type": "Feature", "geometry": {"type": "Point", "coordinates": [-75.8885429, 39.6100725]}, "properties": {"addr:city": "Elkton", "addr:housenumber": "953", "addr:postcode": "21921", "addr:state": "MD", "addr:street": "West Pulaski Highway", "amenity": "clinic", "check_date": "2024-10-03", "contact:facebook": "https://www.facebook.com/endyouraddiction/", "fax": "+1-443-485-6442", "healthcare": "clinic", "healthcare:speciality": "addiction", "name": "Serenity Health", "opening_hours": "Mo-Fr 05:00-11:00; Sa 06:00-10:00", "phone": "+1-443-485-6544", "website": "https://serenityllc.net/", "source_id": 6611248627, "osm_type": "node", "facility_type": "clinics"}}, {"type": "Feature", "geometry": {"type": "Point", "coordinates": [-78.1647237, 39.1638479]}, "properties": {"amenity": "clinic", "healthcare": "clinic", "name": "Valley Health Urgent Care", "source_id": 6716719410, "osm_type": "node", "facility_type": "clinics"}}, {"type": "Feature", "geometry": {"type": "Point", "coordinates": [-75.8236021, 38.8747515]}, "properties": {"addr:city": "Denton", "addr:housenumber": "8", "addr:postcode": "21629", "addr:state": "MD", "addr:street": "Denton Plaza", "amenity": "clinic", "healthcare": "clinic", "name": "University of Maryland Urgent Care", "phone": "+1-443-606-2300", "short_name": "UM Urgent Care", "website": "https://www.umms.org/health-services/urgent-care", "source_id": 6736737907, "osm_type": "node", "facility_type": "clinics"}}, {"type": "Feature", "geometry": {"type": "Point", "coordinates": [-78.3390966, 39.0045614]}, "properties": {"amenity": "clinic", "healthcare": "clinic", "source_id": 6789369976, "osm_type": "node", "facility_type": "clinics", "name": null}}, {"type": "Feature", "geometry": {"type": "Point", "coordinates": [-76.6298529, 39.3366597]}, "properties": {"addr:city": "Baltimore", "addr:housenumber": "711", "addr:postcode": "21211", "addr:state": "MD", "addr:street": "West 40th Street", "amenity": "clinic", "check_date": "2022-10-28", "healthcare": "clinic", "level": "0", "name": "University of Maryland Urgent Care", "opening_hours": "Mo-Su 08:00-20:00", "phone": "+1 443-961-1221", "short_name": "UM Urgent Care", "website": "https://www.umms.org/health-services/urgent-care/locations/rotunda", "source_id": 6789533143, "osm_type": "node", "facility_type": "clinics"}}, {"type": "Feature", "geometry": {"type": "Point", "coordinates": [-76.2478577, 39.4804961]}, "properties": {"addr:city": "Belcamp", "addr:housenumber": "1321", "addr:postcode": "21017", "addr:state": "MD", "addr:street": "Riverside Parkway", "addr:unit": "A-3", "amenity": "clinic", "healthcare": "clinic", "healthcare:speciality": "occupational", "name": "Worksite Medical", "phone": "+1-443-372-7449", "website": "https://www.worksitemed.com/", "source_id": 6812599533, "osm_type": "node", "facility_type": "clinics"}}, {"type": "Feature", "geometry": {"type": "Point", "coordinates": [-76.186632, 39.5196276]}, "properties": {"addr:city": "Aberdeen", "addr:housenumber": "780", "addr:postcode": "21001", "addr:state": "MD", "addr:street": "West Bel Air Avenue", "addr:unit": "B", "amenity": "clinic", "fax": "+1-410-273-1040", "healthcare": "clinic", "healthcare:speciality": "addiction", "name": "Serenity Health", "phone": "+1-410-273-1030", "source_id": 6813379164, "osm_type": "node", "facility_type": "clinics"}}, {"type": "Feature", "geometry": {"type": "Point", "coordinates": [-76.1858593, 39.5237031]}, "properties": {"addr:city": "Aberdeen", "addr:housenumber": "998", "addr:postcode": "21001", "addr:state": "MD", "addr:street": "Hospitality Way", "addr:unit": "A", "amenity": "clinic", "contact:facebook": "https://www.facebook.com/Prompt-Occupational-Health-Care-562392260786930/", "fax": "+1-410-272-7707", "fixme": "not sure how to best tag this", "healthcare": "clinic", "healthcare:speciality": "occupational", "name": "Prompt Occupational Health care", "phone": "+1-410-272-7700", "source_id": 6815944448, "osm_type": "node", "facility_type": "clinics"}}, {"type": "Feature", "geometry": {"type": "Point", "coordinates": [-76.1784651, 39.4969933]}, "properties": {"addr:city": "Aberdeen", "addr:housenumber": "744", "addr:postcode": "21001", "addr:state": "MD", "addr:street": "South Philadelphia Boulevard", "addr:unit": "B", "amenity": "clinic", "fax": "+1-443-345-2666", "healthcare": "clinic", "healthcare:speciality": "urgent", "name": "University of Maryland Urgent Care", "opening_hours": "08:00-20:00", "phone": "+1-443-345-2650", "short_name": "UM Urgent Care", "website": "https://www.umms.org/health-services/urgent-care", "source_id": 6816168812, "osm_type": "node", "facility_type": "clinics"}}, {"type": "Feature", "geometry": {"type": "Point", "coordinates": [-76.408563, 39.3537616]}, "properties": {"addr:city": "Middle River", "addr:country": "US", "addr:housenumber": "11605", "addr:postcode": "21220", "addr:state": "MD", "addr:street": "Crossroads Circle", "addr:unit": "A", "amenity": "clinic", "healthcare": "clinic", "name": "Surgcenter of White Marsh", "source_id": 6818435614, "osm_type": "node", "facility_type": "clinics"}},